[{"id":1,"rating":"1","year":"MICHELIN Guide California 2019","img":"https://axwwgrkdco.cloudimg.io/v7/mtp-cf-images.s3-eu-west-1.amazonaws.com/images/max/7b13c846-7132-49f9-9f77-ee3383d3549f.jpg?width=500\u0026amp;sharp=1","name":"Shin Sushi","link":"https://guide.michelin.com//en/california/encino/restaurant/shin-sushi","location":"Encino","type":"Japanese, Japanese","lat":34.157841,"lng":-118.494148},{"id":2,"rating":"1","year":"MICHELIN Guide California 2019","img":"https://axwwgrkdco.cloudimg.io/v7/mtp-cf-images.s3-eu-west-1.amazonaws.com/images/max/3e8cea96-13fc-4ce4-ba15-6eb7e32a1e76.jpg?width=500\u0026amp;sharp=1","name":"Hayato","link":"https://guide.michelin.com//en/california/us-los-angeles/restaurant/hayato","location":"Los Angeles","type":"Japanese, Japanese","lat":34.033806,"lng":-118.241882},{"id":3,"rating":"1","year":"MICHELIN Guide California 2019","img":"https://axwwgrkdco.cloudimg.io/v7/mtp-cf-images.s3-eu-west-1.amazonaws.com/images/max/5bdc0468-c0ad-41a8-bbd9-534dd4a06fb9.jpg?width=500\u0026amp;sharp=1","name":"Angler SF","link":"https://guide.michelin.com//en/california/san-francisco/restaurant/angler","location":"San Francisco","type":"Contemporary, Contemporary","lat":37.793167,"lng":-122.392128},{"id":4,"rating":"1","year":"MICHELIN Guide California 2019","img":"https://axwwgrkdco.cloudimg.io/v7/mtp-cf-images.s3-eu-west-1.amazonaws.com/images/max/994288db-b02c-4e56-b7c0-68603881ca7e.jpg?width=500\u0026amp;sharp=1","name":"Harbor House","link":"https://guide.michelin.com//en/california/elk/restaurant/harbor-house","location":"Elk","type":"Californian, Californian","lat":39.135876,"lng":-123.719444},{"id":5,"rating":"1","year":"MICHELIN Guide California 2019","img":"https://axwwgrkdco.cloudimg.io/v7/mtp-cf-images.s3-eu-west-1.amazonaws.com/images/max/16565e7e-e0b5-4449-a582-034756fe49ba.jpg?width=500\u0026amp;sharp=1","name":"Addison","link":"https://guide.michelin.com//en/california/us-san-diego/restaurant/addison","location":"San Diego","type":"Contemporary, Contemporary","lat":32.941296,"lng":-117.198891},{"id":6,"rating":"1","year":"MICHELIN Guide California 2019","img":"https://axwwgrkdco.cloudimg.io/v7/mtp-cf-images.s3-eu-west-1.amazonaws.com/images/max/cd54a350-5c78-428b-bdde-b33797f2f441.jpg?width=500\u0026amp;sharp=1","name":"Taco María","link":"https://guide.michelin.com//en/california/us-costa-mesa/restaurant/taco-maria","location":"Costa Mesa","type":"Mexican, Mexican","lat":33.694958,"lng":-117.925751},{"id":7,"rating":"1","year":"MICHELIN Guide California 2019","img":"https://axwwgrkdco.cloudimg.io/v7/mtp-cf-images.s3-eu-west-1.amazonaws.com/images/max/a87dfca8-f7c8-4b27-8cc6-ed35668fde18.jpg?width=500\u0026amp;sharp=1","name":"Hana re","link":"https://guide.michelin.com//en/california/us-costa-mesa/restaurant/hana-re","location":"Costa Mesa","type":"Japanese, Japanese","lat":33.677868,"lng":-117.885437},{"id":8,"rating":"2","year":"MICHELIN Guide California 2019","img":"https://axwwgrkdco.cloudimg.io/v7/mtp-cf-images.s3-eu-west-1.amazonaws.com/images/max/efe3fc77-f5d6-4d21-b24c-0c097dfa5564.jpg?width=500\u0026amp;sharp=1","name":"Vespertine","link":"https://guide.michelin.com//en/california/culver-city/restaurant/vespertine","location":"Culver City","type":"Contemporary","lat":34.024204,"lng":-118.38166},{"id":9,"rating":"1","year":"MICHELIN Guide California 2019","img":"https://axwwgrkdco.cloudimg.io/v7/mtp-cf-images.s3-eu-west-1.amazonaws.com/images/max/82c326a0-0d91-46a0-9264-e45ae8eb8db5.jpg?width=500\u0026amp;sharp=1","name":"Shunji","link":"https://guide.michelin.com//en/california/us-los-angeles/restaurant/shunji","location":"Los Angeles","type":"Japanese","lat":34.028496,"lng":-118.45195},{"id":10,"rating":"2","year":"MICHELIN Guide California 2019","img":"https://axwwgrkdco.cloudimg.io/v7/mtp-cf-images.s3-eu-west-1.amazonaws.com/images/max/0c915490-8cc4-4a4a-a913-a4a3634c57ff.jpg?width=500\u0026amp;sharp=1","name":"n/naka","link":"https://guide.michelin.com//en/california/us-los-angeles/restaurant/n-naka","location":"Los Angeles","type":"Japanese, Japanese","lat":34.025261,"lng":-118.412064},{"id":11,"rating":"1","year":"MICHELIN Guide California 2019","img":"https://axwwgrkdco.cloudimg.io/v7/mtp-cf-images.s3-eu-west-1.amazonaws.com/images/max/29a0ad6e-23c3-447e-a3c8-2e4156ccb26c.jpg?width=500\u0026amp;sharp=1","name":"Mori Sushi","link":"https://guide.michelin.com//en/california/us-los-angeles/restaurant/mori-sushi","location":"Los Angeles","type":"Japanese","lat":34.033398,"lng":-118.442291},{"id":12,"rating":"1","year":"MICHELIN Guide California 2019","img":"https://axwwgrkdco.cloudimg.io/v7/mtp-cf-images.s3-eu-west-1.amazonaws.com/images/max/6553a041-e90a-486e-8867-b6a342bf5185.jpg?width=500\u0026amp;sharp=1","name":"Kato","link":"https://guide.michelin.com//en/california/us-los-angeles/restaurant/kato","location":"Los Angeles","type":"Asian, Asian","lat":34.041908,"lng":-118.461098},{"id":13,"rating":"1","year":"MICHELIN Guide California 2019","img":"https://axwwgrkdco.cloudimg.io/v7/mtp-cf-images.s3-eu-west-1.amazonaws.com/images/max/e82cd99f-7f3b-4844-88c9-027e64c4b5dd.jpg?width=500\u0026amp;sharp=1","name":"Rustic Canyon","link":"https://guide.michelin.com//en/california/santa-monica/restaurant/rustic-canyon","location":"Santa Monica","type":"Californian","lat":34.024952,"lng":-118.49118},{"id":14,"rating":"1","year":"MICHELIN Guide California 2019","img":"https://axwwgrkdco.cloudimg.io/v7/mtp-cf-images.s3-eu-west-1.amazonaws.com/images/max/b5c48464-3649-4e86-af64-449284ba1e66.jpg?width=500\u0026amp;sharp=1","name":"Dialogue","link":"https://guide.michelin.com//en/california/santa-monica/restaurant/dialogue","location":"Santa Monica","type":"Contemporary","lat":34.016861,"lng":-118.497261},{"id":15,"rating":"1","year":"MICHELIN Guide California 2019","img":"https://axwwgrkdco.cloudimg.io/v7/mtp-cf-images.s3-eu-west-1.amazonaws.com/images/max/488fd3b5-5a4b-4617-a4ed-5cc0bc7e00bc.jpg?width=500\u0026amp;sharp=1","name":"Bistro Na’s","link":"https://guide.michelin.com//en/california/temple-city/restaurant/bistro-na-s","location":"Temple City","type":"Chinese, Chinese","lat":34.104881,"lng":-118.071213},{"id":16,"rating":"2","year":"MICHELIN Guide California 2019","img":"https://axwwgrkdco.cloudimg.io/v7/mtp-cf-images.s3-eu-west-1.amazonaws.com/images/max/2449781c-ebc4-4bbf-bca1-50f0db2cab43.jpg?width=500\u0026amp;sharp=1","name":"Sushi Ginza Onodera","link":"https://guide.michelin.com//en/california/west-hollywood/restaurant/sushi-ginza-onodera559850","location":"West Hollywood","type":"Japanese, Japanese","lat":34.082253,"lng":-118.376686},{"id":17,"rating":"2","year":"MICHELIN Guide California 2019","img":"https://axwwgrkdco.cloudimg.io/v7/mtp-cf-images.s3-eu-west-1.amazonaws.com/images/max/7268a6b7-705b-458d-ad9f-25470498ad4c.jpg?width=500\u0026amp;sharp=1","name":"Providence","link":"https://guide.michelin.com//en/california/hollywood/restaurant/providence","location":"Hollywood","type":"Seafood","lat":34.083576,"lng":-118.330185},{"id":18,"rating":"1","year":"MICHELIN Guide California 2019","img":"https://axwwgrkdco.cloudimg.io/v7/mtp-cf-images.s3-eu-west-1.amazonaws.com/images/max/bac116f0-9f27-4718-b076-87184d3773a0.jpg?width=500\u0026amp;sharp=1","name":"Osteria Mozza","link":"https://guide.michelin.com//en/california/us-los-angeles/restaurant/osteria-mozza","location":"Los Angeles","type":"Italian","lat":34.083309,"lng":-118.33876},{"id":19,"rating":"1","year":"MICHELIN Guide California 2019","img":"https://axwwgrkdco.cloudimg.io/v7/mtp-cf-images.s3-eu-west-1.amazonaws.com/images/max/4ddc0b6e-a00e-4646-a5d2-19dd55b3f9b2.jpg?width=500\u0026amp;sharp=1","name":"Kali","link":"https://guide.michelin.com//en/california/hollywood/restaurant/kali","location":"Hollywood","type":"Californian","lat":34.083355,"lng":-118.324501},{"id":20,"rating":"1","year":"MICHELIN Guide California 2019","img":"https://axwwgrkdco.cloudimg.io/v7/mtp-cf-images.s3-eu-west-1.amazonaws.com/images/max/085210a0-1cdf-4a9d-bd8e-3e4033cfcd28.jpg?width=500\u0026amp;sharp=1","name":"Shibumi","link":"https://guide.michelin.com//en/california/us-los-angeles/restaurant/shibumi559644","location":"Los Angeles","type":"Japanese, Japanese","lat":34.044155,"lng":-118.256134},{"id":21,"rating":"1","year":"MICHELIN Guide California 2019","img":"https://axwwgrkdco.cloudimg.io/v7/mtp-cf-images.s3-eu-west-1.amazonaws.com/images/max/f3083d9d-a362-46fc-a846-55b6063f5160.JPG?width=500\u0026amp;sharp=1","name":"Q Sushi","link":"https://guide.michelin.com//en/california/us-los-angeles/restaurant/q-sushi","location":"Los Angeles","type":"Japanese, Japanese","lat":34.046883,"lng":-118.255844},{"id":22,"rating":"1","year":"MICHELIN Guide California 2019","img":"https://axwwgrkdco.cloudimg.io/v7/mtp-cf-images.s3-eu-west-1.amazonaws.com/images/max/534c4fe7-b008-4224-9e78-085d4738d622.jpg?width=500\u0026amp;sharp=1","name":"Orsa \u0026 Winston","link":"https://guide.michelin.com//en/california/us-los-angeles/restaurant/orsa-winston","location":"Los Angeles","type":"Contemporary, Contemporary","lat":34.04847,"lng":-118.247948},{"id":23,"rating":"1","year":"MICHELIN Guide California 2019","img":"https://axwwgrkdco.cloudimg.io/v7/mtp-cf-images.s3-eu-west-1.amazonaws.com/images/max/7f785c47-339f-4288-8e88-7e61e6380b70.jpg?width=500\u0026amp;sharp=1","name":"Le Comptoir","link":"https://guide.michelin.com//en/california/us-los-angeles/restaurant/le-comptoir","location":"Los Angeles","type":"Californian, Californian","lat":34.063465,"lng":-118.300453},{"id":24,"rating":"1","year":"MICHELIN Guide California 2019","img":"https://axwwgrkdco.cloudimg.io/v7/mtp-cf-images.s3-eu-west-1.amazonaws.com/images/max/480b68c4-e708-4336-9e52-02d47d0d6bf7.jpg?width=500\u0026amp;sharp=1","name":"Nozawa Bar","link":"https://guide.michelin.com//en/california/beverly-hills/restaurant/nozawa-bar","location":"Beverly Hills","type":"Japanese, Japanese","lat":34.068333,"lng":-118.398407},{"id":25,"rating":"1","year":"MICHELIN Guide California 2019","img":"https://axwwgrkdco.cloudimg.io/v7/mtp-cf-images.s3-eu-west-1.amazonaws.com/images/max/3ab24e3c-eedc-4590-93fb-a090a1163b6d.jpg?width=500\u0026amp;sharp=1","name":"Maude","link":"https://guide.michelin.com//en/california/beverly-hills/restaurant/maude","location":"Beverly Hills","type":"Contemporary, Contemporary","lat":34.064346,"lng":-118.39904},{"id":26,"rating":"1","year":"MICHELIN Guide California 2019","img":"https://axwwgrkdco.cloudimg.io/v7/mtp-cf-images.s3-eu-west-1.amazonaws.com/images/max/712ec5e6-0f5a-4e41-9696-ee780123be23.jpg?width=500\u0026amp;sharp=1","name":"CUT","link":"https://guide.michelin.com//en/california/beverly-hills/restaurant/cut559418","location":"Beverly Hills","type":"Steakhouse, Steakhouse","lat":34.067036,"lng":-118.401024},{"id":27,"rating":"1","year":"MICHELIN Guide California 2019","img":"https://axwwgrkdco.cloudimg.io/v7/mtp-cf-images.s3-eu-west-1.amazonaws.com/images/max/772e2414-ecf1-412f-ae2d-96fb8c5cd123.jpg?width=500\u0026amp;sharp=1","name":"Aubergine","link":"https://guide.michelin.com//en/california/carmel-by-the-sea/restaurant/aubergine","location":"Carmel-by-the-Sea","type":"Contemporary, Contemporary","lat":36.554062,"lng":-121.924355},{"id":28,"rating":"1","year":"MICHELIN Guide California 2019","img":"https://axwwgrkdco.cloudimg.io/v7/mtp-cf-images.s3-eu-west-1.amazonaws.com/images/max/b7fa53f6-2be6-4aab-b5cc-5f49aa4a7203.jpg?width=500\u0026amp;sharp=1","name":"The Kitchen","link":"https://guide.michelin.com//en/california/us-sacramento/restaurant/the-kitchen559371","location":"Sacramento","type":"Contemporary, Contemporary","lat":38.58905,"lng":-121.41423},{"id":29,"rating":"1","year":"MICHELIN Guide Brazil 2019","img":"https://axwwgrkdco.cloudimg.io/v7/mtp-cf-images.s3-eu-west-1.amazonaws.com/images/max/f345a8e0-a8e6-49cd-be93-8cd1a3436611.jpg?width=500\u0026amp;sharp=1","name":"Tangará Jean-Georges","link":"https://guide.michelin.com//en/sao-paulo-region/sao-paulo/restaurant/tangara-jean-georges","location":"São Paulo","type":"Modern Cuisine","lat":-23.631996,"lng":-46.722843},{"id":30,"rating":"1","year":"MICHELIN Guide Brazil 2019","img":"https://axwwgrkdco.cloudimg.io/v7/mtp-cf-images.s3-eu-west-1.amazonaws.com/images/max/e5c18dc4-bf8e-4e2b-9fa2-3f3be3e2dd28.jpg?width=500\u0026amp;sharp=1","name":"Ryo Gastronomia","link":"https://guide.michelin.com//en/sao-paulo-region/sao-paulo/restaurant/ryo-gastronomia","location":"São Paulo","type":"Japanese","lat":-23.58145,"lng":-46.676907},{"id":31,"rating":"1","year":"MICHELIN Guide Brazil 2019","img":"https://axwwgrkdco.cloudimg.io/v7/mtp-cf-images.s3-eu-west-1.amazonaws.com/images/max/7a7df521-380c-4b84-a78c-b53e7de889ea.jpg?width=500\u0026amp;sharp=1","name":"Evvai","link":"https://guide.michelin.com//en/sao-paulo-region/sao-paulo/restaurant/evvai","location":"São Paulo","type":"Modern Cuisine","lat":-23.567087,"lng":-46.679073},{"id":32,"rating":"1","year":"MICHELIN Guide Brazil 2019","img":"https://axwwgrkdco.cloudimg.io/v7/mtp-cf-images.s3-eu-west-1.amazonaws.com/images/max/ac3ba407-af8e-47c9-8cdb-5a10b50052ca.jpg?width=500\u0026amp;sharp=1","name":"Oteque","link":"https://guide.michelin.com//en/rio-de-janeiro-region/rio-de-janeiro/restaurant/oteque","location":"Rio de Janeiro","type":"Modern Cuisine","lat":-22.95747,"lng":-43.194424},{"id":33,"rating":"2","year":"MICHELIN Guide Brazil 2019","img":"https://axwwgrkdco.cloudimg.io/v7/mtp-cf-images.s3-eu-west-1.amazonaws.com/images/max/07a38f21-cc00-4b54-820a-7fde528531a7.jpg?width=500\u0026amp;sharp=1","name":"Oro","link":"https://guide.michelin.com//en/rio-de-janeiro-region/rio-de-janeiro/restaurant/oro","location":"Rio de Janeiro","type":"Creative","lat":-22.98601,"lng":-43.224709},{"id":34,"rating":"1","year":"MICHELIN Guide Brazil 2019","img":"https://axwwgrkdco.cloudimg.io/v7/mtp-cf-images.s3-eu-west-1.amazonaws.com/images/max/a14fdf99-640d-494f-90f6-856178b05631.jpg?width=500\u0026amp;sharp=1","name":"Picchi","link":"https://guide.michelin.com//en/sao-paulo-region/sao-paulo/restaurant/picchi","location":"São Paulo","type":"Italian","lat":-23.56539,"lng":-46.666626},{"id":35,"rating":"1","year":"MICHELIN Guide Brazil 2019","img":"https://axwwgrkdco.cloudimg.io/v7/mtp-cf-images.s3-eu-west-1.amazonaws.com/images/max/36e09ec9-895d-47d0-afbc-c427588fc636.jpg?width=500\u0026amp;sharp=1","name":"Kan Suke","link":"https://guide.michelin.com//en/sao-paulo-region/sao-paulo/restaurant/kan-suke","location":"São Paulo","type":"Japanese","lat":-23.568399,"lng":-46.649361},{"id":36,"rating":"1","year":"MICHELIN Guide Brazil 2019","img":"https://axwwgrkdco.cloudimg.io/v7/mtp-cf-images.s3-eu-west-1.amazonaws.com/images/max/18d9c128-5f10-4895-8243-32ed6509b9b3.jpg?width=500\u0026amp;sharp=1","name":"Kosushi","link":"https://guide.michelin.com//en/sao-paulo-region/sao-paulo/restaurant/kosushi","location":"São Paulo","type":"Japanese","lat":-23.585379,"lng":-46.680901},{"id":37,"rating":"1","year":"MICHELIN Guide Brazil 2019","img":"https://axwwgrkdco.cloudimg.io/v7/mtp-cf-images.s3-eu-west-1.amazonaws.com/images/max/781198b6-f5f9-4609-9374-337a39f87397.jpg?width=500\u0026amp;sharp=1","name":"Lasai","link":"https://guide.michelin.com//en/rio-de-janeiro-region/rio-de-janeiro/restaurant/lasai","location":"Rio de Janeiro","type":"Modern Cuisine","lat":-22.954231,"lng":-43.195602},{"id":38,"rating":"1","year":"MICHELIN Guide Brazil 2019","img":"https://axwwgrkdco.cloudimg.io/v7/mtp-cf-images.s3-eu-west-1.amazonaws.com/images/max/8945fc31-8b74-423b-b1de-0e9588955d7c.jpg?width=500\u0026amp;sharp=1","name":"Mee","link":"https://guide.michelin.com//en/rio-de-janeiro-region/rio-de-janeiro/restaurant/mee","location":"Rio de Janeiro","type":"Asian Influences","lat":-22.9671,"lng":-43.179146},{"id":39,"rating":"1","year":"MICHELIN Guide Brazil 2019","img":"https://axwwgrkdco.cloudimg.io/v7/mtp-cf-images.s3-eu-west-1.amazonaws.com/images/max/8a09f826-6d75-4e9a-9da8-2e977aae2a96.jpg?width=500\u0026amp;sharp=1","name":"Maní","link":"https://guide.michelin.com//en/sao-paulo-region/sao-paulo/restaurant/mani","location":"São Paulo","type":"Creative","lat":-23.566322,"lng":-46.679726},{"id":40,"rating":"2","year":"MICHELIN Guide Brazil 2019","img":"https://axwwgrkdco.cloudimg.io/v7/mtp-cf-images.s3-eu-west-1.amazonaws.com/images/max/22427c33-ec8f-4851-9938-57cbdd9917ab.jpg?width=500\u0026amp;sharp=1","name":"D.O.M.","link":"https://guide.michelin.com//en/sao-paulo-region/sao-paulo/restaurant/d-o-m","location":"São Paulo","type":"Creative","lat":-23.566181,"lng":-46.66748},{"id":41,"rating":"1","year":"MICHELIN Guide Brazil 2019","img":"https://axwwgrkdco.cloudimg.io/v7/mtp-cf-images.s3-eu-west-1.amazonaws.com/images/max/fd6f78db-2714-4da7-aa75-453e40063054.jpg?width=500\u0026amp;sharp=1","name":"Jun Sakamoto","link":"https://guide.michelin.com//en/sao-paulo-region/sao-paulo/restaurant/jun-sakamoto","location":"São Paulo","type":"Japanese","lat":-23.563122,"lng":-46.677189},{"id":42,"rating":"1","year":"MICHELIN Guide Brazil 2019","img":"https://axwwgrkdco.cloudimg.io/v7/mtp-cf-images.s3-eu-west-1.amazonaws.com/images/max/32e69c74-7984-4fe9-8c0f-3bcf9681a90b.jpg?width=500\u0026amp;sharp=1","name":"Kinoshita","link":"https://guide.michelin.com//en/sao-paulo-region/sao-paulo/restaurant/kinoshita","location":"São Paulo","type":"Japanese","lat":-23.591808,"lng":-46.671257},{"id":43,"rating":"1","year":"MICHELIN Guide Brazil 2019","img":"https://axwwgrkdco.cloudimg.io/v7/mtp-cf-images.s3-eu-west-1.amazonaws.com/images/max/c1a4c838-edc7-495d-aaf5-5cf33676ff99.jpg?width=500\u0026amp;sharp=1","name":"Huto","link":"https://guide.michelin.com//en/sao-paulo-region/sao-paulo/restaurant/huto","location":"São Paulo","type":"Japanese","lat":-23.609421,"lng":-46.659084},{"id":44,"rating":"1","year":"MICHELIN Guide Brazil 2019","img":"https://axwwgrkdco.cloudimg.io/v7/mtp-cf-images.s3-eu-west-1.amazonaws.com/images/max/eca0e69d-d7fb-4c41-8b25-78a3b1ec4e39.jpg?width=500\u0026amp;sharp=1","name":"Cipriani","link":"https://guide.michelin.com//en/rio-de-janeiro-region/rio-de-janeiro/restaurant/cipriani","location":"Rio de Janeiro","type":"Italian","lat":-22.967043,"lng":-43.179466},{"id":45,"rating":"1","year":"MICHELIN Guide California 2019","img":"https://axwwgrkdco.cloudimg.io/v7/mtp-cf-images.s3-eu-west-1.amazonaws.com/images/max/c0b9a868-94be-485d-87e0-91f56a6e8c76.jpg?width=500\u0026amp;sharp=1","name":"Maum","link":"https://guide.michelin.com//en/california/palo-alto/restaurant/maum","location":"Palo Alto","type":"Korean, Korean","lat":37.446186,"lng":-122.161331},{"id":46,"rating":"1","year":"MICHELIN Guide California 2019","img":"https://axwwgrkdco.cloudimg.io/v7/mtp-cf-images.s3-eu-west-1.amazonaws.com/images/max/b9cc64d2-6c78-4cd9-b54c-ed5c90435328.jpg?width=500\u0026amp;sharp=1","name":"Bar Crenn","link":"https://guide.michelin.com//en/california/san-francisco/restaurant/bar-crenn","location":"San Francisco","type":"French, French","lat":37.798435,"lng":-122.435806},{"id":47,"rating":"1","year":"MICHELIN Guide California 2019","img":"https://axwwgrkdco.cloudimg.io/v7/mtp-cf-images.s3-eu-west-1.amazonaws.com/images/max/22551396-5be1-4396-aeaf-7d1f1802f063.jpg?width=500\u0026amp;sharp=1","name":"Protégé","link":"https://guide.michelin.com//en/california/palo-alto/restaurant/protege","location":"Palo Alto","type":"Contemporary, Contemporary","lat":37.427853,"lng":-122.143623},{"id":48,"rating":"1","year":"MICHELIN Guide California 2019","img":"https://axwwgrkdco.cloudimg.io/v7/mtp-cf-images.s3-eu-west-1.amazonaws.com/images/max/217cd181-9700-4e69-b9fd-c466e6869768.jpg?width=500\u0026amp;sharp=1","name":"Birdsong","link":"https://guide.michelin.com//en/california/san-francisco/restaurant/birdsong","location":"San Francisco","type":"American, American","lat":37.779495,"lng":-122.410477},{"id":49,"rating":"1","year":"MICHELIN Guide California 2019","img":"https://axwwgrkdco.cloudimg.io/v7/mtp-cf-images.s3-eu-west-1.amazonaws.com/images/max/dd65bdc4-c5ab-4828-a5d1-feccae8387ca.jpg?width=500\u0026amp;sharp=1","name":"Sorrel","link":"https://guide.michelin.com//en/california/san-francisco/restaurant/sorrel","location":"San Francisco","type":"Californian, Californian","lat":37.788334,"lng":-122.446136},{"id":50,"rating":"1","year":"MICHELIN Guide California 2019","img":"https://axwwgrkdco.cloudimg.io/v7/mtp-cf-images.s3-eu-west-1.amazonaws.com/images/max/79329cc9-7a44-4f39-88e8-08e24295d8b2.jpg?width=500\u0026amp;sharp=1","name":"Madcap","link":"https://guide.michelin.com//en/california/san-anselmo/restaurant/madcap","location":"San Anselmo","type":"Contemporary, Contemporary","lat":37.974712,"lng":-122.561684},{"id":51,"rating":"3","year":"MICHELIN Guide California 2019","img":"https://axwwgrkdco.cloudimg.io/v7/mtp-cf-images.s3-eu-west-1.amazonaws.com/images/max/d7a4d2aa-f939-4416-8778-fb958a601f31.jpg?width=500\u0026amp;sharp=1","name":"SingleThread","link":"https://guide.michelin.com//en/california/healdsburg/restaurant/singlethread","location":"Healdsburg","type":"Contemporary","lat":38.612259,"lng":-122.86972},{"id":52,"rating":"1","year":"MICHELIN Guide California 2019","img":"https://axwwgrkdco.cloudimg.io/v7/mtp-cf-images.s3-eu-west-1.amazonaws.com/images/max/f38c76aa-1e80-4c6b-946d-5bdf6bb2fbdf.jpg?width=500\u0026amp;sharp=1","name":"Kenzo","link":"https://guide.michelin.com//en/california/napa/restaurant/kenzo","location":"Napa","type":"Japanese","lat":38.29924,"lng":-122.289284},{"id":53,"rating":"1","year":"MICHELIN Guide California 2019","img":"https://axwwgrkdco.cloudimg.io/v7/mtp-cf-images.s3-eu-west-1.amazonaws.com/images/max/e2139473-e437-413d-83e3-4f347b3472a7.jpg?width=500\u0026amp;sharp=1","name":"In Situ","link":"https://guide.michelin.com//en/california/san-francisco/restaurant/in-situ","location":"San Francisco","type":"International","lat":37.785633,"lng":-122.401131},{"id":54,"rating":"1","year":"MICHELIN Guide California 2019","img":"https://axwwgrkdco.cloudimg.io/v7/mtp-cf-images.s3-eu-west-1.amazonaws.com/images/max/0b2c7435-f7bf-415d-9aee-f363ac897cca.jpg?width=500\u0026amp;sharp=1","name":"Hashiri","link":"https://guide.michelin.com//en/california/san-francisco/restaurant/hashiri","location":"San Francisco","type":"Japanese","lat":37.783062,"lng":-122.407539},{"id":55,"rating":"1","year":"MICHELIN Guide California 2019","img":"https://axwwgrkdco.cloudimg.io/v7/mtp-cf-images.s3-eu-west-1.amazonaws.com/images/max/0f008343-26bb-41ae-ad69-f54e48d78c83.jpg?width=500\u0026amp;sharp=1","name":"Mister Jiu’s","link":"https://guide.michelin.com//en/california/san-francisco/restaurant/mister-jius","location":"San Francisco","type":"Chinese","lat":37.793709,"lng":-122.406654},{"id":56,"rating":"1","year":"MICHELIN Guide California 2019","img":"https://axwwgrkdco.cloudimg.io/v7/mtp-cf-images.s3-eu-west-1.amazonaws.com/images/max/6df5683c-ae9a-4857-b115-47300da193de.jpg?width=500\u0026amp;sharp=1","name":"j?-ni","link":"https://guide.michelin.com//en/california/san-francisco/restaurant/ju-ni","location":"San Francisco","type":"Japanese, Japanese","lat":37.776718,"lng":-122.438858},{"id":57,"rating":"1","year":"MICHELIN Guide California 2019","img":"https://axwwgrkdco.cloudimg.io/v7/mtp-cf-images.s3-eu-west-1.amazonaws.com/images/max/e80fc1f1-c463-42c9-a6cd-195d7f9a3b94.jpg?width=500\u0026amp;sharp=1","name":"Omakase","link":"https://guide.michelin.com//en/california/san-francisco/restaurant/omakase","location":"San Francisco","type":"Japanese, Japanese","lat":37.770771,"lng":-122.402977},{"id":58,"rating":"1","year":"MICHELIN Guide California 2019","img":"https://axwwgrkdco.cloudimg.io/v7/mtp-cf-images.s3-eu-west-1.amazonaws.com/images/max/4a97c625-5759-4328-914b-1305a31691bb.jpg?width=500\u0026amp;sharp=1","name":"Lord Stanley","link":"https://guide.michelin.com//en/california/san-francisco/restaurant/lord-stanley","location":"San Francisco","type":"Californian","lat":37.795921,"lng":-122.422081},{"id":59,"rating":"1","year":"MICHELIN Guide California 2019","img":"https://axwwgrkdco.cloudimg.io/v7/mtp-cf-images.s3-eu-west-1.amazonaws.com/images/max/7c35a5b7-5e70-48e1-9a9e-69f2e2a3362a.jpg?width=500\u0026amp;sharp=1","name":"Sushi Yoshizumi","link":"https://guide.michelin.com//en/california/san-mateo/restaurant/sushi-yoshizumi","location":"San Mateo","type":"Japanese, Japanese","lat":37.565075,"lng":-122.321098},{"id":60,"rating":"2","year":"MICHELIN Guide California 2019","img":"https://axwwgrkdco.cloudimg.io/v7/mtp-cf-images.s3-eu-west-1.amazonaws.com/images/max/4d9b12c0-a546-4d13-8723-035bd96007ff.jpg?width=500\u0026amp;sharp=1","name":"Californios","link":"https://guide.michelin.com//en/california/san-francisco/restaurant/californios","location":"San Francisco","type":"Mexican, Mexican","lat":37.75555,"lng":-122.417145},{"id":61,"rating":"1","year":"MICHELIN Guide California 2019","img":"https://axwwgrkdco.cloudimg.io/v7/mtp-cf-images.s3-eu-west-1.amazonaws.com/images/max/066da823-ec3e-4839-94b5-9d30d8f176d9.jpg?width=500\u0026amp;sharp=1","name":"Octavia","link":"https://guide.michelin.com//en/california/san-francisco/restaurant/octavia","location":"San Francisco","type":"Californian, Californian","lat":37.788013,"lng":-122.427025},{"id":62,"rating":"1","year":"MICHELIN Guide California 2019","img":"https://axwwgrkdco.cloudimg.io/v7/mtp-cf-images.s3-eu-west-1.amazonaws.com/images/max/e151b0d5-1f3a-4083-8367-6999f13db30f.jpg?width=500\u0026amp;sharp=1","name":"The Progress","link":"https://guide.michelin.com//en/california/san-francisco/restaurant/the-progress","location":"San Francisco","type":"Californian, Californian","lat":37.78371,"lng":-122.432823},{"id":63,"rating":"1","year":"MICHELIN Guide California 2019","img":"https://axwwgrkdco.cloudimg.io/v7/mtp-cf-images.s3-eu-west-1.amazonaws.com/images/max/d611642f-b10b-4ac9-9da3-5f2fdce791d2.jpg?width=500\u0026amp;sharp=1","name":"Rasa","link":"https://guide.michelin.com//en/california/burlingame/restaurant/rasa","location":"Burlingame","type":"Indian, Indian","lat":37.577538,"lng":-122.345955},{"id":64,"rating":"1","year":"MICHELIN Guide California 2019","img":"https://axwwgrkdco.cloudimg.io/v7/mtp-cf-images.s3-eu-west-1.amazonaws.com/images/max/7a1c9f8e-ced5-43a2-98e0-8c22655e2ac3.jpg?width=500\u0026amp;sharp=1","name":"Mourad","link":"https://guide.michelin.com//en/california/san-francisco/restaurant/mourad","location":"San Francisco","type":"Moroccan","lat":37.786949,"lng":-122.399872},{"id":65,"rating":"2","year":"MICHELIN Guide California 2019","img":"https://axwwgrkdco.cloudimg.io/v7/mtp-cf-images.s3-eu-west-1.amazonaws.com/images/max/c98b8f6f-4ce0-4314-b533-34dc32a7400b.jpg?width=500\u0026amp;sharp=1","name":"Lazy Bear","link":"https://guide.michelin.com//en/california/san-francisco/restaurant/lazy-bear","location":"San Francisco","type":"Contemporary, Contemporary","lat":37.760204,"lng":-122.419693},{"id":66,"rating":"1","year":"MICHELIN Guide California 2019","img":"https://axwwgrkdco.cloudimg.io/v7/mtp-cf-images.s3-eu-west-1.amazonaws.com/images/max/78026679-558a-4cdb-8219-b976e30c79ad.jpg?width=500\u0026amp;sharp=1","name":"Al's Place","link":"https://guide.michelin.com//en/california/san-francisco/restaurant/al-s-place","location":"San Francisco","type":"Californian, Californian","lat":37.748924,"lng":-122.420128},{"id":67,"rating":"1","year":"MICHELIN Guide California 2019","img":"https://axwwgrkdco.cloudimg.io/v7/mtp-cf-images.s3-eu-west-1.amazonaws.com/images/max/9bb05f91-a09f-41b0-85c1-35fa0e28b737.jpg?width=500\u0026amp;sharp=1","name":"Wako","link":"https://guide.michelin.com//en/california/san-francisco/restaurant/wako","location":"San Francisco","type":"Japanese, Japanese","lat":37.78307,"lng":-122.461533},{"id":68,"rating":"1","year":"MICHELIN Guide California 2019","img":"https://axwwgrkdco.cloudimg.io/v7/mtp-cf-images.s3-eu-west-1.amazonaws.com/images/max/66a33641-8b1a-4bf1-a8db-3405b26019e8.jpg?width=500\u0026amp;sharp=1","name":"Kin Khao","link":"https://guide.michelin.com//en/california/san-francisco/restaurant/kin-khao","location":"San Francisco","type":"Thai, Thai","lat":37.785267,"lng":-122.409508},{"id":69,"rating":"1","year":"MICHELIN Guide California 2019","img":"https://axwwgrkdco.cloudimg.io/v7/mtp-cf-images.s3-eu-west-1.amazonaws.com/images/max/83451c38-5601-42ee-9066-7d07cfbe9426.jpg?width=500\u0026amp;sharp=1","name":"Rich Table","link":"https://guide.michelin.com//en/california/san-francisco/restaurant/rich-table","location":"San Francisco","type":"Contemporary","lat":37.774902,"lng":-122.42276},{"id":70,"rating":"1","year":"MICHELIN Guide California 2019","img":"https://axwwgrkdco.cloudimg.io/v7/mtp-cf-images.s3-eu-west-1.amazonaws.com/images/max/3f9ef6d6-c808-4a42-a7b1-fc96a9086fee.jpg?width=500\u0026amp;sharp=1","name":"State Bird Provisions","link":"https://guide.michelin.com//en/california/san-francisco/restaurant/state-bird-provisions","location":"San Francisco","type":"American, American","lat":37.783737,"lng":-122.432831},{"id":71,"rating":"1","year":"MICHELIN Guide California 2019","img":"https://axwwgrkdco.cloudimg.io/v7/mtp-cf-images.s3-eu-west-1.amazonaws.com/images/max/03fa68d2-f508-4f85-9b1e-0e556babfaeb.jpg?width=500\u0026amp;sharp=1","name":"Keiko à Nob Hill","link":"https://guide.michelin.com//en/california/san-francisco/restaurant/keiko-a-nob-hill","location":"San Francisco","type":"Japanese, Japanese","lat":37.793121,"lng":-122.41433},{"id":72,"rating":"3","year":"MICHELIN Guide California 2019","img":"https://axwwgrkdco.cloudimg.io/v7/mtp-cf-images.s3-eu-west-1.amazonaws.com/images/max/87b5e296-3f30-4193-a606-d3e7b83d99a1.jpg?width=500\u0026amp;sharp=1","name":"Benu","link":"https://guide.michelin.com//en/california/san-francisco/restaurant/benu","location":"San Francisco","type":"Contemporary, Contemporary","lat":37.78521,"lng":-122.398758},{"id":73,"rating":"3","year":"MICHELIN Guide California 2019","img":"https://axwwgrkdco.cloudimg.io/v7/mtp-cf-images.s3-eu-west-1.amazonaws.com/images/max/0ec637d1-b60c-4a21-aede-87ce19045bba.jpg?width=500\u0026amp;sharp=1","name":"Atelier Crenn","link":"https://guide.michelin.com//en/california/san-francisco/restaurant/atelier-crenn","location":"San Francisco","type":"Contemporary, Contemporary","lat":37.798351,"lng":-122.43586},{"id":74,"rating":"1","year":"MICHELIN Guide California 2019","img":"https://axwwgrkdco.cloudimg.io/v7/mtp-cf-images.s3-eu-west-1.amazonaws.com/images/max/cb73d705-e2ae-40fd-87d8-b9e132c771cf.jpg?width=500\u0026amp;sharp=1","name":"Michael Mina","link":"https://guide.michelin.com//en/california/san-francisco/restaurant/michael-mina","location":"San Francisco","type":"Contemporary, Contemporary","lat":37.793285,"lng":-122.399414},{"id":75,"rating":"2","year":"MICHELIN Guide California 2019","img":"https://axwwgrkdco.cloudimg.io/v7/mtp-cf-images.s3-eu-west-1.amazonaws.com/images/max/d65b1168-8124-4100-875d-7dd964051ed2.jpg?width=500\u0026amp;sharp=1","name":"Saison","link":"https://guide.michelin.com//en/california/san-francisco/restaurant/saison","location":"San Francisco","type":"Californian, Californian","lat":37.763271,"lng":-122.415428},{"id":76,"rating":"1","year":"MICHELIN Guide California 2019","img":"https://axwwgrkdco.cloudimg.io/v7/mtp-cf-images.s3-eu-west-1.amazonaws.com/images/max/a273f13c-1318-47dd-bf44-354a6158d443.jpg?width=500\u0026amp;sharp=1","name":"Sons \u0026 Daughters","link":"https://guide.michelin.com//en/california/san-francisco/restaurant/sons-daughters","location":"San Francisco","type":"Contemporary","lat":37.790264,"lng":-122.409142},{"id":77,"rating":"2","year":"MICHELIN Guide California 2019","img":"https://axwwgrkdco.cloudimg.io/v7/mtp-cf-images.s3-eu-west-1.amazonaws.com/images/max/2a49db6b-57e1-41c4-ae5a-b4cbb8f6163e.JPG?width=500\u0026amp;sharp=1","name":"Baumé","link":"https://guide.michelin.com//en/california/palo-alto/restaurant/baume","location":"Palo Alto","type":"Contemporary, Contemporary","lat":37.428249,"lng":-122.143074},{"id":78,"rating":"1","year":"MICHELIN Guide California 2019","img":"https://axwwgrkdco.cloudimg.io/v7/mtp-cf-images.s3-eu-west-1.amazonaws.com/images/max/6f072cfe-4298-4974-9d34-5bfced92a783.jpg?width=500\u0026amp;sharp=1","name":"Wakuriya","link":"https://guide.michelin.com//en/california/san-mateo/restaurant/wakuriya","location":"San Mateo","type":"Japanese, Japanese","lat":37.521141,"lng":-122.336601},{"id":79,"rating":"1","year":"MICHELIN Guide California 2019","img":"https://axwwgrkdco.cloudimg.io/v7/mtp-cf-images.s3-eu-west-1.amazonaws.com/images/max/e914fdd9-3c87-4af5-8d2a-5f678796cec3.jpg?width=500\u0026amp;sharp=1","name":"Madera","link":"https://guide.michelin.com//en/california/menlo-park/restaurant/madera","location":"Menlo Park","type":"Contemporary, Contemporary","lat":37.420139,"lng":-122.21151},{"id":80,"rating":"2","year":"MICHELIN Guide California 2019","img":"https://axwwgrkdco.cloudimg.io/v7/mtp-cf-images.s3-eu-west-1.amazonaws.com/images/max/f50749cc-b47e-44a4-beb2-48c406248a5d.jpg?width=500\u0026amp;sharp=1","name":"Commis","link":"https://guide.michelin.com//en/california/oakland/restaurant/commis","location":"Oakland","type":"Contemporary","lat":37.824684,"lng":-122.254845},{"id":81,"rating":"1","year":"MICHELIN Guide California 2019","img":"https://axwwgrkdco.cloudimg.io/v7/mtp-cf-images.s3-eu-west-1.amazonaws.com/images/max/d41d2a76-6571-4b26-8fc2-594ffd986413.jpg?width=500\u0026amp;sharp=1","name":"Luce","link":"https://guide.michelin.com//en/california/san-francisco/restaurant/luce","location":"San Francisco","type":"Contemporary","lat":37.781864,"lng":-122.404762},{"id":82,"rating":"1","year":"MICHELIN Guide California 2019","img":"https://axwwgrkdco.cloudimg.io/v7/mtp-cf-images.s3-eu-west-1.amazonaws.com/images/max/91e98441-9e23-44fb-a68b-302532945f25.jpg?width=500\u0026amp;sharp=1","name":"Spruce","link":"https://guide.michelin.com//en/california/san-francisco/restaurant/spruce","location":"San Francisco","type":"Californian, Californian","lat":37.78772,"lng":-122.452637},{"id":83,"rating":"1","year":"MICHELIN Guide California 2019","img":"https://axwwgrkdco.cloudimg.io/v7/mtp-cf-images.s3-eu-west-1.amazonaws.com/images/max/7ee476d7-86b6-488c-b142-2e15078d6343.jpg?width=500\u0026amp;sharp=1","name":"SPQR","link":"https://guide.michelin.com//en/california/san-francisco/restaurant/spqr","location":"San Francisco","type":"Italian, Italian","lat":37.787369,"lng":-122.43367},{"id":84,"rating":"1","year":"MICHELIN Guide California 2019","img":"https://axwwgrkdco.cloudimg.io/v7/mtp-cf-images.s3-eu-west-1.amazonaws.com/images/max/870998f6-4e06-4ca9-a7a5-1ac0445667e5.jpg?width=500\u0026amp;sharp=1","name":"Madrona Manor","link":"https://guide.michelin.com//en/california/healdsburg/restaurant/madrona-manor","location":"Healdsburg","type":"Contemporary","lat":38.604279,"lng":-122.886467},{"id":85,"rating":"3","year":"MICHELIN Guide California 2019","img":"https://axwwgrkdco.cloudimg.io/v7/mtp-cf-images.s3-eu-west-1.amazonaws.com/images/max/7c0878f0-f4c2-4461-9389-84260ab2fddc.jpg?width=500\u0026amp;sharp=1","name":"The Restaurant at Meadowood","link":"https://guide.michelin.com//en/california/saint-helena/restaurant/the-restaurant-at-meadowood","location":"Saint Helena","type":"Contemporary","lat":38.520248,"lng":-122.46479},{"id":86,"rating":"2","year":"MICHELIN Guide California 2019","img":"https://axwwgrkdco.cloudimg.io/v7/mtp-cf-images.s3-eu-west-1.amazonaws.com/images/max/4644901b-00b0-4c15-b259-da3ffa0a3764.jpg?width=500\u0026amp;sharp=1","name":"Coi","link":"https://guide.michelin.com//en/california/san-francisco/restaurant/coi","location":"San Francisco","type":"Contemporary, Contemporary","lat":37.798187,"lng":-122.403366},{"id":87,"rating":"2","year":"MICHELIN Guide California 2019","img":"https://axwwgrkdco.cloudimg.io/v7/mtp-cf-images.s3-eu-west-1.amazonaws.com/images/max/5126687c-a2c6-4ca0-8278-28ce3686ada9.jpg?width=500\u0026amp;sharp=1","name":"Acquerello","link":"https://guide.michelin.com//en/california/san-francisco/restaurant/acquerello","location":"San Francisco","type":"Italian, Italian","lat":37.791672,"lng":-122.42131},{"id":88,"rating":"1","year":"MICHELIN Guide California 2019","img":"https://axwwgrkdco.cloudimg.io/v7/mtp-cf-images.s3-eu-west-1.amazonaws.com/images/max/d1bafead-fd83-4f42-a41c-6805ce9e6661.jpg?width=500\u0026amp;sharp=1","name":"The Village Pub","link":"https://guide.michelin.com//en/california/woodside/restaurant/the-village-pub","location":"Woodside","type":"Contemporary, Contemporary","lat":37.42897,"lng":-122.251778},{"id":89,"rating":"1","year":"MICHELIN Guide California 2019","img":"https://axwwgrkdco.cloudimg.io/v7/mtp-cf-images.s3-eu-west-1.amazonaws.com/images/max/521a3e3e-3058-4b1e-91a0-30b1367266f1.jpg?width=500\u0026amp;sharp=1","name":"Plumed Horse","link":"https://guide.michelin.com//en/california/saratoga/restaurant/plumed-horse","location":"Saratoga","type":"Contemporary, Contemporary","lat":37.256363,"lng":-122.035263},{"id":90,"rating":"1","year":"MICHELIN Guide California 2019","img":"https://axwwgrkdco.cloudimg.io/v7/mtp-cf-images.s3-eu-west-1.amazonaws.com/images/max/198bea61-7624-4d04-b4cd-dcc658a74e2b.jpg?width=500\u0026amp;sharp=1","name":"Chez TJ","link":"https://guide.michelin.com//en/california/mountain-view/restaurant/chez-tj","location":"Mountain View","type":"Contemporary, Contemporary","lat":37.39468,"lng":-122.080437},{"id":91,"rating":"3","year":"MICHELIN Guide California 2019","img":"https://axwwgrkdco.cloudimg.io/v7/mtp-cf-images.s3-eu-west-1.amazonaws.com/images/max/370613d7-a919-4596-b1ea-a75832a45506.jpg?width=500\u0026amp;sharp=1","name":"Manresa","link":"https://guide.michelin.com//en/california/los-gatos/restaurant/manresa","location":"Los Gatos","type":"Contemporary, Contemporary","lat":37.227612,"lng":-121.980713},{"id":92,"rating":"1","year":"MICHELIN Guide California 2019","img":"https://axwwgrkdco.cloudimg.io/v7/mtp-cf-images.s3-eu-west-1.amazonaws.com/images/max/39591bd5-22f4-4e80-8bc2-377821a23e69.jpg?width=500\u0026amp;sharp=1","name":"Farmhouse Inn \u0026 Restaurant","link":"https://guide.michelin.com//en/california/forestville/restaurant/farmhouse-inn-restaurant","location":"Forestville","type":"Californian","lat":38.490391,"lng":-122.883499},{"id":93,"rating":"1","year":"MICHELIN Guide California 2019","img":"https://axwwgrkdco.cloudimg.io/v7/mtp-cf-images.s3-eu-west-1.amazonaws.com/images/max/1bc1090e-a12b-4bba-bebd-4339fdb24cb8.jpg?width=500\u0026amp;sharp=1","name":"Bouchon","link":"https://guide.michelin.com//en/california/yountville/restaurant/bouchon","location":"Yountville","type":"French","lat":38.40258,"lng":-122.3619},{"id":94,"rating":"3","year":"MICHELIN Guide California 2019","img":"https://axwwgrkdco.cloudimg.io/v7/mtp-cf-images.s3-eu-west-1.amazonaws.com/images/max/27d17f3c-82ab-4ddc-b3cb-181b03bd0d68.jpg?width=500\u0026amp;sharp=1","name":"The French Laundry","link":"https://guide.michelin.com//en/california/yountville/restaurant/the-french-laundry","location":"Yountville","type":"Contemporary, Contemporary","lat":38.40443,"lng":-122.364738},{"id":95,"rating":"1","year":"MICHELIN Guide California 2019","img":"https://axwwgrkdco.cloudimg.io/v7/mtp-cf-images.s3-eu-west-1.amazonaws.com/images/max/27cbc778-9be1-48ed-afae-5f66f3fba9cc.jpg?width=500\u0026amp;sharp=1","name":"Gary Danko","link":"https://guide.michelin.com//en/california/san-francisco/restaurant/gary-danko","location":"San Francisco","type":"Contemporary","lat":37.805813,"lng":-122.420685},{"id":96,"rating":"3","year":"MICHELIN Guide California 2019","img":"https://axwwgrkdco.cloudimg.io/v7/mtp-cf-images.s3-eu-west-1.amazonaws.com/images/max/5d927191-933d-4b42-a188-672882e2205c.jpg?width=500\u0026amp;sharp=1","name":"Quince","link":"https://guide.michelin.com//en/california/san-francisco/restaurant/quince","location":"San Francisco","type":"Contemporary, Contemporary","lat":37.797619,"lng":-122.403374},{"id":97,"rating":"2","year":"MICHELIN Guide California 2019","img":"https://axwwgrkdco.cloudimg.io/v7/mtp-cf-images.s3-eu-west-1.amazonaws.com/images/max/cc67ee9f-3a07-40b3-8cd4-a3218d16303e.jpg?width=500\u0026amp;sharp=1","name":"Campton Place","link":"https://guide.michelin.com//en/california/san-francisco/restaurant/campton-place","location":"San Francisco","type":"Indian, Indian","lat":37.78923,"lng":-122.406647},{"id":98,"rating":"1","year":"MICHELIN Guide California 2019","img":"https://axwwgrkdco.cloudimg.io/v7/mtp-cf-images.s3-eu-west-1.amazonaws.com/images/max/d5449d7a-94c2-4aca-bdcb-36145bef265c.jpg?width=500\u0026amp;sharp=1","name":"La Toque","link":"https://guide.michelin.com//en/california/napa/restaurant/la-toque","location":"Napa","type":"Contemporary","lat":38.303509,"lng":-122.283493},{"id":99,"rating":"1","year":"MICHELIN Guide California 2019","img":"https://axwwgrkdco.cloudimg.io/v7/mtp-cf-images.s3-eu-west-1.amazonaws.com/images/max/5aca35f6-739d-49e4-9461-6e6177e3a577.jpg?width=500\u0026amp;sharp=1","name":"Auberge du Soleil","link":"https://guide.michelin.com//en/california/rutherford/restaurant/auberge-du-soleil","location":"Rutherford","type":"Californian","lat":38.491989,"lng":-122.405342},{"id":100,"rating":"2","year":"MICHELIN Guide Taiwan 2020","img":"https://axwwgrkdco.cloudimg.io/v7/mtp-cf-images.s3-eu-west-1.amazonaws.com/images/max/3a2c61f2-8b9d-4661-9fd3-00ec5d586f4d.jpg?width=500\u0026amp;sharp=1","name":"Shoun Ryugin","link":"https://guide.michelin.com//en/taipei-region/taipei/restaurant/shoun-ryugin","location":"Taipei","type":"Japanese Contemporary","lat":25.082851,"lng":121.559486},{"id":101,"rating":"1","year":"MICHELIN Guide Taiwan 2020","img":"https://axwwgrkdco.cloudimg.io/v7/mtp-cf-images.s3-eu-west-1.amazonaws.com/images/max/78db4775-959f-4b70-b952-3273810f3940.jpg?width=500\u0026amp;sharp=1","name":"Molino de Urdániz","link":"https://guide.michelin.com//en/taipei-region/taipei/restaurant/molino-de-urdaniz","location":"Taipei","type":"European Contemporary","lat":25.050529,"lng":121.53698},{"id":102,"rating":"1","year":"MICHELIN Guide Taiwan 2020","img":"https://axwwgrkdco.cloudimg.io/v7/mtp-cf-images.s3-eu-west-1.amazonaws.com/images/max/6fb3e845-32d7-41e2-afb6-d97952e83135.jpg?width=500\u0026amp;sharp=1","name":"A Cut","link":"https://guide.michelin.com//en/taipei-region/taipei/restaurant/a-cut","location":"Taipei","type":"Steakhouse","lat":25.05666,"lng":121.522881},{"id":103,"rating":"1","year":"MICHELIN Guide Taiwan 2020","img":"https://axwwgrkdco.cloudimg.io/v7/mtp-cf-images.s3-eu-west-1.amazonaws.com/images/max/f019af33-f6ea-456a-9d31-a7361a3c96df.jpg?width=500\u0026amp;sharp=1","name":"Oretachi No Nikuya","link":"https://guide.michelin.com//en/taichung-region/taichung/restaurant/oretachi-no-nikuya","location":"Taichung","type":"Barbecue","lat":24.151024,"lng":120.65641},{"id":104,"rating":"1","year":"MICHELIN Guide Taiwan 2020","img":"https://axwwgrkdco.cloudimg.io/v7/mtp-cf-images.s3-eu-west-1.amazonaws.com/images/max/7ffa5ea2-03e9-4fe7-b78d-b3d14eb5fbe5.jpg?width=500\u0026amp;sharp=1","name":"Tien Hsiang Lo","link":"https://guide.michelin.com//en/taipei-region/taipei/restaurant/tien-hsiang-lo","location":"Taipei","type":"Hang Zhou","lat":25.062841,"lng":121.529968},{"id":105,"rating":"1","year":"MICHELIN Guide Taiwan 2020","img":"https://axwwgrkdco.cloudimg.io/v7/mtp-cf-images.s3-eu-west-1.amazonaws.com/images/max/33c98693-fc46-4051-a751-13bdad37b431.jpg?width=500\u0026amp;sharp=1","name":"Mume","link":"https://guide.michelin.com//en/taipei-region/taipei/restaurant/mume","location":"Taipei","type":"European Contemporary","lat":25.036278,"lng":121.548012},{"id":106,"rating":"1","year":"MICHELIN Guide Taiwan 2020","img":"https://axwwgrkdco.cloudimg.io/v7/mtp-cf-images.s3-eu-west-1.amazonaws.com/images/max/8c253b5e-4505-485e-8a39-2a003e97f95e.jpg?width=500\u0026amp;sharp=1","name":"Danny's Steakhouse","link":"https://guide.michelin.com//en/taipei-region/taipei/restaurant/danny-s-steakhouse","location":"Taipei","type":"Steakhouse","lat":25.082485,"lng":121.552788},{"id":107,"rating":"2","year":"MICHELIN Guide Taiwan 2020","img":"https://axwwgrkdco.cloudimg.io/v7/mtp-cf-images.s3-eu-west-1.amazonaws.com/images/max/e72cf511-fd85-43d3-92e4-d688fc7238cf.jpg?width=500\u0026amp;sharp=1","name":"Logy","link":"https://guide.michelin.com//en/taipei-region/taipei/restaurant/logy","location":"Taipei","type":"Asian Contemporary","lat":25.035576,"lng":121.552956},{"id":108,"rating":"1","year":"MICHELIN Guide Taiwan 2020","img":"https://axwwgrkdco.cloudimg.io/v7/mtp-cf-images.s3-eu-west-1.amazonaws.com/images/max/df83878f-8e8f-4a33-a3f5-113fb30fea93.jpg?width=500\u0026amp;sharp=1","name":"Longtail","link":"https://guide.michelin.com//en/taipei-region/taipei/restaurant/longtail","location":"Taipei","type":"Innovative","lat":25.023937,"lng":121.548248},{"id":109,"rating":"1","year":"MICHELIN Guide Taiwan 2020","img":"https://axwwgrkdco.cloudimg.io/v7/mtp-cf-images.s3-eu-west-1.amazonaws.com/images/max/0798480b-c801-4032-9a55-420adef0ff61.jpg?width=500\u0026amp;sharp=1","name":"Sushi Akira","link":"https://guide.michelin.com//en/taipei-region/taipei/restaurant/sushi-akira","location":"Taipei","type":"Sushi","lat":25.066139,"lng":121.524857},{"id":110,"rating":"3","year":"MICHELIN Guide Taiwan 2020","img":"https://axwwgrkdco.cloudimg.io/v7/mtp-cf-images.s3-eu-west-1.amazonaws.com/images/max/4ef7a03a-036f-4907-a677-bea7d242cb27.jpg?width=500\u0026amp;sharp=1","name":"Le Palais","link":"https://guide.michelin.com//en/taipei-region/taipei/restaurant/le-palais","location":"Taipei","type":"Cantonese","lat":25.04907,"lng":121.51696},{"id":111,"rating":"1","year":"MICHELIN Guide Taiwan 2020","img":"https://axwwgrkdco.cloudimg.io/v7/mtp-cf-images.s3-eu-west-1.amazonaws.com/images/max/a4caa89c-2543-45f9-96fd-d9096d4a270d.jpg?width=500\u0026amp;sharp=1","name":"Impromptu by Paul Lee","link":"https://guide.michelin.com//en/taipei-region/taipei/restaurant/impromptu-by-paul-lee","location":"Taipei","type":"Innovative","lat":25.054178,"lng":121.524246},{"id":112,"rating":"1","year":"MICHELIN Guide Taiwan 2020","img":"https://axwwgrkdco.cloudimg.io/v7/mtp-cf-images.s3-eu-west-1.amazonaws.com/images/max/75b266f1-9391-40c9-8dfd-92ec24d14679.jpg?width=500\u0026amp;sharp=1","name":"Sushi Nomura","link":"https://guide.michelin.com//en/taipei-region/taipei/restaurant/sushi-nomura","location":"Taipei","type":"Sushi","lat":25.036207,"lng":121.554787},{"id":113,"rating":"1","year":"MICHELIN Guide Taiwan 2020","img":"https://axwwgrkdco.cloudimg.io/v7/mtp-cf-images.s3-eu-west-1.amazonaws.com/images/max/4d1974f0-fd7a-4559-bc4c-4b8ae57d850f.jpg?width=500\u0026amp;sharp=1","name":"Forchetta","link":"https://guide.michelin.com//en/taichung-region/taichung/restaurant/forchetta","location":"Taichung","type":"European Contemporary","lat":24.16003,"lng":120.640846},{"id":114,"rating":"2","year":"MICHELIN Guide Taiwan 2020","img":"https://axwwgrkdco.cloudimg.io/v7/mtp-cf-images.s3-eu-west-1.amazonaws.com/images/max/63501a72-610e-4869-b375-d4d39a677635.jpg?width=500\u0026amp;sharp=1","name":"JL Studio","link":"https://guide.michelin.com//en/taichung-region/taichung/restaurant/jl-studio","location":"Taichung","type":"Innovative","lat":24.150568,"lng":120.628555},{"id":115,"rating":"1","year":"MICHELIN Guide Taiwan 2020","img":"https://axwwgrkdco.cloudimg.io/v7/mtp-cf-images.s3-eu-west-1.amazonaws.com/images/max/97265a47-1f84-47fd-acb6-7a8dd20007c8.jpg?width=500\u0026amp;sharp=1","name":"Ken Anhe","link":"https://guide.michelin.com//en/taipei-region/taipei/restaurant/ken-an-ho","location":"Taipei","type":"Japanese","lat":25.034624,"lng":121.553413},{"id":116,"rating":"1","year":"MICHELIN Guide Taiwan 2020","img":"https://axwwgrkdco.cloudimg.io/v7/mtp-cf-images.s3-eu-west-1.amazonaws.com/images/max/4fd6bd7c-04ce-4fbb-b839-1768a88a2d94.jpg?width=500\u0026amp;sharp=1","name":"Fleur De Sel","link":"https://guide.michelin.com//en/taichung-region/taichung/restaurant/fleur-de-sel-1188695","location":"Taichung","type":"French Contemporary","lat":24.160425,"lng":120.634514},{"id":117,"rating":"2","year":"MICHELIN Guide Taiwan 2020","img":"https://axwwgrkdco.cloudimg.io/v7/mtp-cf-images.s3-eu-west-1.amazonaws.com/images/max/2bf006a9-2763-4e79-b184-cff1bb606558.jpg?width=500\u0026amp;sharp=1","name":"Sushi Amamoto","link":"https://guide.michelin.com//en/taipei-region/taipei/restaurant/sushi-amamoto","location":"Taipei","type":"Sushi","lat":25.037945,"lng":121.554871},{"id":118,"rating":"1","year":"MICHELIN Guide Taiwan 2020","img":"https://axwwgrkdco.cloudimg.io/v7/mtp-cf-images.s3-eu-west-1.amazonaws.com/images/max/94486572-ae4a-4314-a657-1447dc95d108.jpg?width=500\u0026amp;sharp=1","name":"Three Coins","link":"https://guide.michelin.com//en/taipei-region/taipei/restaurant/da-san-yuan","location":"Taipei","type":"Cantonese","lat":25.042217,"lng":121.51223},{"id":119,"rating":"1","year":"MICHELIN Guide Taiwan 2020","img":"https://axwwgrkdco.cloudimg.io/v7/mtp-cf-images.s3-eu-west-1.amazonaws.com/images/max/9298e796-6485-4485-ba28-e1ed899c1c11.jpg?width=500\u0026amp;sharp=1","name":"L'Atelier de Joël Robuchon","link":"https://guide.michelin.com//en/taipei-region/taipei/restaurant/l-atelier-de-joel-robuchon550759","location":"Taipei","type":"French Contemporary","lat":25.03961,"lng":121.568138},{"id":120,"rating":"1","year":"MICHELIN Guide Taiwan 2020","img":"https://axwwgrkdco.cloudimg.io/v7/mtp-cf-images.s3-eu-west-1.amazonaws.com/images/max/dd72a4c7-662d-4e56-a669-23d9122985ef.jpg?width=500\u0026amp;sharp=1","name":"Golden Formosa","link":"https://guide.michelin.com//en/taipei-region/taipei/restaurant/golden-formosa","location":"Taipei","type":"Taiwanese","lat":25.118368,"lng":121.536247},{"id":121,"rating":"2","year":"MICHELIN Guide Taiwan 2020","img":"https://axwwgrkdco.cloudimg.io/v7/mtp-cf-images.s3-eu-west-1.amazonaws.com/images/max/2eb5b0ab-9e45-44e4-8c3d-20d3055f55eb.jpg?width=500\u0026amp;sharp=1","name":"The Guest House","link":"https://guide.michelin.com//en/taipei-region/taipei/restaurant/the-guest-house","location":"Taipei","type":"Huaiyang, Huaiyang","lat":25.044601,"lng":121.521858},{"id":122,"rating":"1","year":"MICHELIN Guide Taiwan 2020","img":"https://axwwgrkdco.cloudimg.io/v7/mtp-cf-images.s3-eu-west-1.amazonaws.com/images/max/b3352a87-1939-4a14-8505-add8cb03c3f9.jpg?width=500\u0026amp;sharp=1","name":"Sushi Ryu","link":"https://guide.michelin.com//en/taipei-region/taipei/restaurant/sushi-ryu","location":"Taipei","type":"Sushi","lat":25.055813,"lng":121.527275},{"id":123,"rating":"2","year":"MICHELIN Guide Taiwan 2020","img":"https://axwwgrkdco.cloudimg.io/v7/mtp-cf-images.s3-eu-west-1.amazonaws.com/images/max/62729df2-c04f-48ea-8b76-f3ad0717cb15.jpg?width=500\u0026amp;sharp=1","name":"Taïrroir","link":"https://guide.michelin.com//en/taipei-region/taipei/restaurant/tairroir","location":"Taipei","type":"Innovative","lat":25.082895,"lng":121.559303},{"id":124,"rating":"1","year":"MICHELIN Guide Taiwan 2020","img":"https://axwwgrkdco.cloudimg.io/v7/mtp-cf-images.s3-eu-west-1.amazonaws.com/images/max/4f884e75-198f-46e2-b35a-fec51a083671.jpg?width=500\u0026amp;sharp=1","name":"Ming Fu","link":"https://guide.michelin.com//en/taipei-region/taipei/restaurant/ming-fu","location":"Taipei","type":"Taiwanese","lat":25.061628,"lng":121.524178},{"id":125,"rating":"1","year":"MICHELIN Guide Taiwan 2020","img":"https://axwwgrkdco.cloudimg.io/v7/mtp-cf-images.s3-eu-west-1.amazonaws.com/images/max/94fac186-8bfb-4044-ab22-9d6c496843b1.jpg?width=500\u0026amp;sharp=1","name":"Mountain and Sea House","link":"https://guide.michelin.com//en/taipei-region/taipei/restaurant/mountain-and-sea-house","location":"Taipei","type":"Taiwanese","lat":25.038095,"lng":121.531433},{"id":126,"rating":"2","year":"MICHELIN Guide Taiwan 2020","img":"https://axwwgrkdco.cloudimg.io/v7/mtp-cf-images.s3-eu-west-1.amazonaws.com/images/max/bc241971-9212-4daa-9208-d46bdea2f5b1.jpg?width=500\u0026amp;sharp=1","name":"Raw","link":"https://guide.michelin.com//en/taipei-region/taipei/restaurant/raw","location":"Taipei","type":"Innovative","lat":25.083019,"lng":121.559593},{"id":127,"rating":"1","year":"MICHELIN Guide Taiwan 2020","img":"https://axwwgrkdco.cloudimg.io/v7/mtp-cf-images.s3-eu-west-1.amazonaws.com/images/max/6f1aca0c-61dc-453d-ade9-e70e3c913ff9.jpg?width=500\u0026amp;sharp=1","name":"Da-Wan","link":"https://guide.michelin.com//en/taipei-region/taipei/restaurant/da-wan","location":"Taipei","type":"Barbecue","lat":25.043045,"lng":121.550789},{"id":128,"rating":"1","year":"MICHELIN Guide Taiwan 2020","img":"https://axwwgrkdco.cloudimg.io/v7/mtp-cf-images.s3-eu-west-1.amazonaws.com/images/max/04e2847d-db46-435f-b8d3-10680e028adf.jpg?width=500\u0026amp;sharp=1","name":"Ya Ge","link":"https://guide.michelin.com//en/taipei-region/taipei/restaurant/ya-ge","location":"Taipei","type":"Cantonese","lat":25.055801,"lng":121.548347},{"id":129,"rating":"1","year":"MICHELIN Guide Taiwan 2020","img":"https://axwwgrkdco.cloudimg.io/v7/mtp-cf-images.s3-eu-west-1.amazonaws.com/images/max/70708412-1908-45d1-99ce-5206deec4432.jpg?width=500\u0026amp;sharp=1","name":"Kitcho","link":"https://guide.michelin.com//en/taipei-region/taipei/restaurant/kitcho","location":"Taipei","type":"Sushi","lat":25.043045,"lng":121.550789},{"id":130,"rating":"1","year":"MICHELIN Guide Guangzhou 2019","img":"https://axwwgrkdco.cloudimg.io/v7/mtp-cf-images.s3-eu-west-1.amazonaws.com/images/max/ccad63d3-3a4a-441f-ab60-e95485a2f296.jpg?width=500\u0026amp;sharp=1","name":"Lai Heen","link":"https://guide.michelin.com//en/guangdong-province/guangzhou/restaurant/lai-heen-559155","location":"Guangzhou","type":"Cantonese","lat":23.116602,"lng":113.326996},{"id":131,"rating":"1","year":"MICHELIN Guide Guangzhou 2019","img":"https://axwwgrkdco.cloudimg.io/v7/mtp-cf-images.s3-eu-west-1.amazonaws.com/images/max/6f4fdc40-6553-4066-b636-bd44ddd280b5.jpg?width=500\u0026amp;sharp=1","name":"BingSheng Mansion","link":"https://guide.michelin.com//en/guangdong-province/guangzhou/restaurant/bingsheng-mansion","location":"Guangzhou","type":"Cantonese","lat":23.114925,"lng":113.328293},{"id":132,"rating":"1","year":"MICHELIN Guide Guangzhou 2019","img":"https://axwwgrkdco.cloudimg.io/v7/mtp-cf-images.s3-eu-west-1.amazonaws.com/images/max/20315f7e-722b-4857-b41e-2f1ac7610ae6.jpg?width=500\u0026amp;sharp=1","name":"Lei Garden (Yuexiu)","link":"https://guide.michelin.com//en/guangdong-province/guangzhou/restaurant/lei-garden-yuexiu","location":"Guangzhou","type":"Cantonese","lat":23.1341,"lng":113.284859},{"id":133,"rating":"1","year":"MICHELIN Guide Guangzhou 2019","img":"https://axwwgrkdco.cloudimg.io/v7/mtp-cf-images.s3-eu-west-1.amazonaws.com/images/max/1bafbeb3-d807-4446-9972-37dbd475d1aa.jpg?width=500\u0026amp;sharp=1","name":"Jade River","link":"https://guide.michelin.com//en/guangdong-province/guangzhou/restaurant/jade-river","location":"Guangzhou","type":"Cantonese","lat":23.10601,"lng":113.242897},{"id":134,"rating":"1","year":"MICHELIN Guide Guangzhou 2019","img":"https://axwwgrkdco.cloudimg.io/v7/mtp-cf-images.s3-eu-west-1.amazonaws.com/images/max/fb04d104-4f5c-49f9-9b78-1aa5a4a59b25.jpg?width=500\u0026amp;sharp=1","name":"Imperial Treasure Fine Chinese Cuisine","link":"https://guide.michelin.com//en/guangdong-province/guangzhou/restaurant/imperial-treasure-fine-chinese-cuisine-559150","location":"Guangzhou","type":"Cantonese","lat":23.116732,"lng":113.33091},{"id":135,"rating":"1","year":"MICHELIN Guide Guangzhou 2019","img":"https://axwwgrkdco.cloudimg.io/v7/mtp-cf-images.s3-eu-west-1.amazonaws.com/images/max/f5f16c59-5397-4404-a1e6-129f9b3ee260.jpg?width=500\u0026amp;sharp=1","name":"BingSheng Private Kitchen","link":"https://guide.michelin.com//en/guangdong-province/guangzhou/restaurant/bingsheng-private-kitchen","location":"Guangzhou","type":"Cantonese","lat":23.134829,"lng":113.334312},{"id":136,"rating":"1","year":"MICHELIN Guide Guangzhou 2019","img":"https://axwwgrkdco.cloudimg.io/v7/mtp-cf-images.s3-eu-west-1.amazonaws.com/images/max/90e507fd-ef1a-4918-901b-6e4d59d9f496.jpg?width=500\u0026amp;sharp=1","name":"Wisca (Haizhu)","link":"https://guide.michelin.com//en/guangdong-province/guangzhou/restaurant/wisca-haizhu","location":"Guangzhou","type":"Cantonese","lat":23.133034,"lng":113.24926},{"id":137,"rating":"1","year":"MICHELIN Guide Guangzhou 2019","img":"https://axwwgrkdco.cloudimg.io/v7/mtp-cf-images.s3-eu-west-1.amazonaws.com/images/max/ce36d6cf-0a64-4477-88d8-0d0d2e49af2b.jpg?width=500\u0026amp;sharp=1","name":"Song","link":"https://guide.michelin.com//en/guangdong-province/guangzhou/restaurant/song","location":"Guangzhou","type":"Sichuan","lat":23.122259,"lng":113.321899},{"id":138,"rating":"1","year":"MICHELIN Guide Guangzhou 2019","img":"https://axwwgrkdco.cloudimg.io/v7/mtp-cf-images.s3-eu-west-1.amazonaws.com/images/max/6b8ee88d-d2ae-4094-8e8c-4c55114b4263.jpg?width=500\u0026amp;sharp=1","name":"Yu Yue Heen","link":"https://guide.michelin.com//en/guangdong-province/guangzhou/restaurant/yu-yue-heen","location":"Guangzhou","type":"Cantonese","lat":23.11779,"lng":113.323418},{"id":139,"rating":"2","year":"MICHELIN Guide Guangzhou 2019","img":"https://axwwgrkdco.cloudimg.io/v7/mtp-cf-images.s3-eu-west-1.amazonaws.com/images/max/642e85f4-c7ab-44d0-b467-2df87df8ce49.jpg?width=500\u0026amp;sharp=1","name":"Jiang by Chef Fei","link":"https://guide.michelin.com//en/guangdong-province/guangzhou/restaurant/jiang-by-chef-fei","location":"Guangzhou","type":"Cantonese","lat":23.1348,"lng":113.333519},{"id":140,"rating":"1","year":"MICHELIN Guide Guangzhou 2019","img":"https://axwwgrkdco.cloudimg.io/v7/mtp-cf-images.s3-eu-west-1.amazonaws.com/images/max/6eae440d-0bd8-4217-9979-8192e07157dc.jpg?width=500\u0026amp;sharp=1","name":"Famous Cuisine","link":"https://guide.michelin.com//en/guangdong-province/guangzhou/restaurant/famous-cuisine","location":"Guangzhou","type":"Cantonese","lat":23.142012,"lng":113.322586},{"id":141,"rating":"1","year":"MICHELIN Guide Shanghai 2020","img":"https://axwwgrkdco.cloudimg.io/v7/mtp-cf-images.s3-eu-west-1.amazonaws.com/images/max/b250ec0d-5b4c-4be3-afc1-6efd07e2cfb5.jpg?width=500\u0026amp;sharp=1","name":"Maison Lameloise","link":"https://guide.michelin.com//en/shanghai-municipality/shanghai/restaurant/maison-lameloise-563686","location":"Shanghai","type":"French Contemporary","lat":31.235929,"lng":121.500969},{"id":142,"rating":"2","year":"MICHELIN Guide Shanghai 2020","img":"https://axwwgrkdco.cloudimg.io/v7/mtp-cf-images.s3-eu-west-1.amazonaws.com/images/max/c71f1fe3-aeb7-4c60-8163-3d2ac0097936.jpg?width=500\u0026amp;sharp=1","name":"Taian Table","link":"https://guide.michelin.com//en/shanghai-municipality/shanghai/restaurant/taian-table","location":"Shanghai","type":"Innovative","lat":31.221807,"lng":121.474052},{"id":143,"rating":"2","year":"MICHELIN Guide Shanghai 2020","img":"https://axwwgrkdco.cloudimg.io/v7/mtp-cf-images.s3-eu-west-1.amazonaws.com/images/max/2fd627a2-1f05-4b16-a0dd-3debeac70896.jpg?width=500\u0026amp;sharp=1","name":"Ji Pin Court","link":"https://guide.michelin.com//en/shanghai-municipality/shanghai/restaurant/ji-pin-court","location":"Shanghai","type":"Cantonese","lat":31.206108,"lng":121.448654},{"id":144,"rating":"1","year":"MICHELIN Guide Shanghai 2020","img":"https://axwwgrkdco.cloudimg.io/v7/mtp-cf-images.s3-eu-west-1.amazonaws.com/images/max/683336a6-b7e2-4421-ae0d-8f3dd1f82571.jpg?width=500\u0026amp;sharp=1","name":"Da Vittorio","link":"https://guide.michelin.com//en/shanghai-municipality/shanghai/restaurant/da-vittorio-570570","location":"Shanghai","type":"Italian","lat":31.229464,"lng":121.49295},{"id":145,"rating":"1","year":"MICHELIN Guide Shanghai 2020","img":"https://axwwgrkdco.cloudimg.io/v7/mtp-cf-images.s3-eu-west-1.amazonaws.com/images/max/8e7a777a-9a50-4685-9436-636cce7d52ff.jpg?width=500\u0026amp;sharp=1","name":"T'ang Court","link":"https://guide.michelin.com//en/shanghai-municipality/shanghai/restaurant/t-ang-court-506725","location":"Shanghai","type":"Cantonese","lat":31.208948,"lng":121.445602},{"id":146,"rating":"2","year":"MICHELIN Guide Shanghai 2020","img":"https://axwwgrkdco.cloudimg.io/v7/mtp-cf-images.s3-eu-west-1.amazonaws.com/images/max/cb951a63-e7c5-41c0-be15-75f9ab40d804.jpg?width=500\u0026amp;sharp=1","name":"L'Atelier de Joël Robuchon","link":"https://guide.michelin.com//en/shanghai-municipality/shanghai/restaurant/l-atelier-de-joel-robuchon-506708","location":"Shanghai","type":"French Contemporary","lat":31.239767,"lng":121.485397},{"id":147,"rating":"1","year":"MICHELIN Guide Shanghai 2020","img":"https://axwwgrkdco.cloudimg.io/v7/mtp-cf-images.s3-eu-west-1.amazonaws.com/images/max/02b02f14-4a7c-4c8e-b774-dc48e6ed9fef.jpg?width=500\u0026amp;sharp=1","name":"Shang-High Cuisine","link":"https://guide.michelin.com//en/shanghai-municipality/shanghai/restaurant/shang-high-cuisine","location":"Shanghai","type":"Shanghainese","lat":31.234909,"lng":121.480583},{"id":148,"rating":"1","year":"MICHELIN Guide Shanghai 2020","img":"https://axwwgrkdco.cloudimg.io/v7/mtp-cf-images.s3-eu-west-1.amazonaws.com/images/max/8eecf5be-8994-4078-af3f-b6119694a6ae.jpg?width=500\u0026amp;sharp=1","name":"Lao Zheng Xing (Huangpu)","link":"https://guide.michelin.com//en/shanghai-municipality/shanghai/restaurant/lao-zheng-xing-huangpu","location":"Shanghai","type":"Shanghainese","lat":31.235098,"lng":121.475464},{"id":149,"rating":"1","year":"MICHELIN Guide Shanghai 2020","img":"https://axwwgrkdco.cloudimg.io/v7/mtp-cf-images.s3-eu-west-1.amazonaws.com/images/max/2d4b1296-b435-4714-84ff-2eed7780270d.jpg?width=500\u0026amp;sharp=1","name":"Moose (Changning)","link":"https://guide.michelin.com//en/shanghai-municipality/shanghai/restaurant/moose-changning","location":"Shanghai","type":"Huaiyang","lat":31.201891,"lng":121.429703},{"id":150,"rating":"1","year":"MICHELIN Guide Shanghai 2020","img":"https://axwwgrkdco.cloudimg.io/v7/mtp-cf-images.s3-eu-west-1.amazonaws.com/images/max/ed89327a-1c48-44ff-a9ed-64c343e2d206.jpg?width=500\u0026amp;sharp=1","name":"Yi Long Court","link":"https://guide.michelin.com//en/shanghai-municipality/shanghai/restaurant/yi-long-court","location":"Shanghai","type":"Cantonese","lat":31.243757,"lng":121.507576},{"id":151,"rating":"1","year":"MICHELIN Guide Shanghai 2020","img":"https://axwwgrkdco.cloudimg.io/v7/mtp-cf-images.s3-eu-west-1.amazonaws.com/images/max/c182507d-640b-465f-996e-238e17d8598e.jpg?width=500\u0026amp;sharp=1","name":"Jade Mansion","link":"https://guide.michelin.com//en/shanghai-municipality/shanghai/restaurant/jade-mansion","location":"Shanghai","type":"Huaiyang","lat":31.236486,"lng":121.503128},{"id":152,"rating":"2","year":"MICHELIN Guide Shanghai 2020","img":"https://axwwgrkdco.cloudimg.io/v7/mtp-cf-images.s3-eu-west-1.amazonaws.com/images/max/304d4ebc-3246-4eb5-a2f6-487f16a1452a.jpg?width=500\u0026amp;sharp=1","name":"8 ½ Otto e Mezzo Bombana","link":"https://guide.michelin.com//en/shanghai-municipality/shanghai/restaurant/8-%C2%BD-otto-e-mezzo-bombana","location":"Shanghai","type":"Italian","lat":31.244394,"lng":121.483459},{"id":153,"rating":"2","year":"MICHELIN Guide Shanghai 2020","img":"https://axwwgrkdco.cloudimg.io/v7/mtp-cf-images.s3-eu-west-1.amazonaws.com/images/max/c2e2af7a-6898-4352-96e1-f7e47d45dc8d.jpg?width=500\u0026amp;sharp=1","name":"Imperial Treasure Fine Chinese Cuisine (Huangpu)","link":"https://guide.michelin.com//en/shanghai-municipality/shanghai/restaurant/imperial-treasure-fine-chinese-cuisine-huangpu","location":"Shanghai","type":"Cantonese","lat":31.223181,"lng":121.4645},{"id":154,"rating":"1","year":"MICHELIN Guide Shanghai 2020","img":"https://axwwgrkdco.cloudimg.io/v7/mtp-cf-images.s3-eu-west-1.amazonaws.com/images/max/402f59c7-9c30-4471-8a46-9a04ebfeb97c.jpg?width=500\u0026amp;sharp=1","name":"Jin Xuan","link":"https://guide.michelin.com//en/shanghai-municipality/shanghai/restaurant/jin-xuan","location":"Shanghai","type":"Cantonese","lat":31.238417,"lng":121.498024},{"id":155,"rating":"1","year":"MICHELIN Guide Shanghai 2020","img":"https://axwwgrkdco.cloudimg.io/v7/mtp-cf-images.s3-eu-west-1.amazonaws.com/images/max/702bc0c2-2a62-4f3c-9f78-2f9794d5022b.jpg?width=500\u0026amp;sharp=1","name":"Yu Zhi Lan","link":"https://guide.michelin.com//en/shanghai-municipality/shanghai/restaurant/yu-zhi-lan","location":"Shanghai","type":"Sichuan","lat":31.218916,"lng":121.449455},{"id":156,"rating":"2","year":"MICHELIN Guide Shanghai 2020","img":"https://axwwgrkdco.cloudimg.io/v7/mtp-cf-images.s3-eu-west-1.amazonaws.com/images/max/a47d744d-17db-4ed4-90f8-9f1dcafaa9e7.jpg?width=500\u0026amp;sharp=1","name":"Canton 8 (Runan Street)","link":"https://guide.michelin.com//en/shanghai-municipality/shanghai/restaurant/canton-8-runan-street","location":"Shanghai","type":"Cantonese","lat":31.204708,"lng":121.477989},{"id":157,"rating":"1","year":"MICHELIN Guide Shanghai 2020","img":"https://axwwgrkdco.cloudimg.io/v7/mtp-cf-images.s3-eu-west-1.amazonaws.com/images/max/0765961c-c262-4274-9207-38772c7c9eef.jpg?width=500\u0026amp;sharp=1","name":"Seventh Son (Jingan)","link":"https://guide.michelin.com//en/shanghai-municipality/shanghai/restaurant/seventh-son-jingan","location":"Shanghai","type":"Cantonese","lat":31.219599,"lng":121.460075},{"id":158,"rating":"1","year":"MICHELIN Guide Shanghai 2020","img":"https://axwwgrkdco.cloudimg.io/v7/mtp-cf-images.s3-eu-west-1.amazonaws.com/images/max/eae123be-ed8d-4dab-b23c-b430d13e9fe9.jpg?width=500\u0026amp;sharp=1","name":"Moose (Pudong)","link":"https://guide.michelin.com//en/shanghai-municipality/shanghai/restaurant/moose-pudong","location":"Shanghai","type":"Huaiyang","lat":31.230604,"lng":121.515167},{"id":159,"rating":"1","year":"MICHELIN Guide Shanghai 2020","img":"https://axwwgrkdco.cloudimg.io/v7/mtp-cf-images.s3-eu-west-1.amazonaws.com/images/max/8bdabae2-d9e3-4042-adea-73f8964569de.jpg?width=500\u0026amp;sharp=1","name":"Sir Elly's","link":"https://guide.michelin.com//en/shanghai-municipality/shanghai/restaurant/sir-elly-s","location":"Shanghai","type":"European Contemporary","lat":31.235737,"lng":121.450912},{"id":160,"rating":"1","year":"MICHELIN Guide Shanghai 2020","img":"https://axwwgrkdco.cloudimg.io/v7/mtp-cf-images.s3-eu-west-1.amazonaws.com/images/max/cf12d4cf-f7f4-4618-ac30-6dedb3e74252.jpg?width=500\u0026amp;sharp=1","name":"Ming Court","link":"https://guide.michelin.com//en/shanghai-municipality/shanghai/restaurant/ming-court-570629","location":"Shanghai","type":"Cantonese","lat":31.19512,"lng":121.31633},{"id":161,"rating":"1","year":"MICHELIN Guide Shanghai 2020","img":"https://axwwgrkdco.cloudimg.io/v7/mtp-cf-images.s3-eu-west-1.amazonaws.com/images/max/1cef4dce-818d-4f51-a7bb-14940f0548ba.jpg?width=500\u0026amp;sharp=1","name":"Phénix","link":"https://guide.michelin.com//en/shanghai-municipality/shanghai/restaurant/phenix","location":"Shanghai","type":"French","lat":31.223997,"lng":121.44368},{"id":162,"rating":"1","year":"MICHELIN Guide Shanghai 2020","img":"https://axwwgrkdco.cloudimg.io/v7/mtp-cf-images.s3-eu-west-1.amazonaws.com/images/max/4c6e3c86-bbce-4275-82a2-cb7ba607a6a7.jpg?width=500\u0026amp;sharp=1","name":"Fu He Hui","link":"https://guide.michelin.com//en/shanghai-municipality/shanghai/restaurant/fu-he-hui","location":"Shanghai","type":"Vegetarian","lat":31.220461,"lng":121.425095},{"id":163,"rating":"1","year":"MICHELIN Guide Shanghai 2020","img":"https://axwwgrkdco.cloudimg.io/v7/mtp-cf-images.s3-eu-west-1.amazonaws.com/images/max/026400b8-66f4-409f-b73d-7d78bc4395c0.jpg?width=500\u0026amp;sharp=1","name":"Bao Li Xuan","link":"https://guide.michelin.com//en/shanghai-municipality/shanghai/restaurant/bao-li-xuan","location":"Shanghai","type":"Cantonese","lat":31.242798,"lng":121.482315},{"id":164,"rating":"3","year":"MICHELIN Guide Shanghai 2020","img":"https://axwwgrkdco.cloudimg.io/v7/mtp-cf-images.s3-eu-west-1.amazonaws.com/images/max/4206ca18-6f29-4c98-ac29-aab0ee89c85a.jpg?width=500\u0026amp;sharp=1","name":"Ultraviolet by Paul Pairet","link":"https://guide.michelin.com//en/shanghai-municipality/shanghai/restaurant/ultraviolet-by-paul-pairet","location":"Shanghai","type":"Innovative","lat":31.240358,"lng":121.485092},{"id":165,"rating":"1","year":"MICHELIN Guide Shanghai 2020","img":"https://axwwgrkdco.cloudimg.io/v7/mtp-cf-images.s3-eu-west-1.amazonaws.com/images/max/5827746f-fc88-490c-8a35-c2e33b630fe8.jpg?width=500\u0026amp;sharp=1","name":"Yong Yi Ting","link":"https://guide.michelin.com//en/shanghai-municipality/shanghai/restaurant/yong-yi-ting","location":"Shanghai","type":"Shanghainese","lat":31.245216,"lng":121.503433},{"id":166,"rating":"2","year":"MICHELIN Guide Shanghai 2020","img":"https://axwwgrkdco.cloudimg.io/v7/mtp-cf-images.s3-eu-west-1.amazonaws.com/images/max/8759603f-85f9-4ef1-8b65-c11486659e50.jpg?width=500\u0026amp;sharp=1","name":"YongFoo Élite","link":"https://guide.michelin.com//en/shanghai-municipality/shanghai/restaurant/yongfoo-elite","location":"Shanghai","type":"Shanghainese","lat":31.211227,"lng":121.438423},{"id":167,"rating":"1","year":"MICHELIN Guide Shanghai 2020","img":"https://axwwgrkdco.cloudimg.io/v7/mtp-cf-images.s3-eu-west-1.amazonaws.com/images/max/b62edd98-8cfc-4cd1-bf4b-69f9ebced2a8.jpg?width=500\u0026amp;sharp=1","name":"Cheng Long Hang (Huangpu)","link":"https://guide.michelin.com//en/shanghai-municipality/shanghai/restaurant/cheng-long-hang-huangpu","location":"Shanghai","type":"Shanghainese","lat":31.239067,"lng":121.481613},{"id":168,"rating":"1","year":"MICHELIN Guide Shanghai 2020","img":"https://axwwgrkdco.cloudimg.io/v7/mtp-cf-images.s3-eu-west-1.amazonaws.com/images/max/eda8c59e-36b8-4133-af24-48670e166706.jpg?width=500\u0026amp;sharp=1","name":"Da Dong (Xuhui)","link":"https://guide.michelin.com//en/shanghai-municipality/shanghai/restaurant/da-dong-xuhui","location":"Shanghai","type":"Chinese Contemporary","lat":31.230507,"lng":121.437469},{"id":169,"rating":"2","year":"MICHELIN Guide Shanghai 2020","img":"https://axwwgrkdco.cloudimg.io/v7/mtp-cf-images.s3-eu-west-1.amazonaws.com/images/max/6bdd7178-6912-44fc-9f13-cd637a9c4596.jpg?width=500\u0026amp;sharp=1","name":"Xin Rong Ji (Nanyang Road)","link":"https://guide.michelin.com//en/shanghai-municipality/shanghai/restaurant/xin-rong-ji-nanyang-road","location":"Shanghai","type":"Taizhou","lat":31.22789,"lng":121.450706},{"id":170,"rating":"1","year":"MICHELIN Guide Shanghai 2020","img":"https://axwwgrkdco.cloudimg.io/v7/mtp-cf-images.s3-eu-west-1.amazonaws.com/images/max/71090361-ef4a-4186-ba8c-c6556b940483.jpg?width=500\u0026amp;sharp=1","name":"Il Ristorante - Niko Romito","link":"https://guide.michelin.com//en/shanghai-municipality/shanghai/restaurant/il-ristorante-niko-romito-563683","location":"Shanghai","type":"Italian","lat":31.229977,"lng":121.487038},{"id":171,"rating":"1","year":"MICHELIN Guide Shanghai 2020","img":"https://axwwgrkdco.cloudimg.io/v7/mtp-cf-images.s3-eu-west-1.amazonaws.com/images/max/79b22c2b-da66-468f-aadf-97c59f889b12.jpg?width=500\u0026amp;sharp=1","name":"Jean Georges","link":"https://guide.michelin.com//en/shanghai-municipality/shanghai/restaurant/jean-georges-506640","location":"Shanghai","type":"French","lat":31.218637,"lng":121.490738},{"id":172,"rating":"1","year":"MICHELIN Guide Shanghai 2020","img":"https://axwwgrkdco.cloudimg.io/v7/mtp-cf-images.s3-eu-west-1.amazonaws.com/images/max/aaf4fa0b-7293-44fb-8cb1-3be7da9cbe53.jpg?width=500\u0026amp;sharp=1","name":"Lei Garden (Xuhui)","link":"https://guide.michelin.com//en/shanghai-municipality/shanghai/restaurant/lei-garden-xuhui","location":"Shanghai","type":"Cantonese","lat":31.218122,"lng":121.454124},{"id":173,"rating":"1","year":"MICHELIN Guide Shanghai 2020","img":"https://axwwgrkdco.cloudimg.io/v7/mtp-cf-images.s3-eu-west-1.amazonaws.com/images/max/80f18f58-837b-4480-ae84-4eacf9a9f6cb.jpg?width=500\u0026amp;sharp=1","name":"Wujie (Huangpu)","link":"https://guide.michelin.com//en/shanghai-municipality/shanghai/restaurant/wujie-huangpu","location":"Shanghai","type":"Vegetarian","lat":31.232756,"lng":121.489464},{"id":174,"rating":"1","year":"MICHELIN Guide Shanghai 2020","img":"https://axwwgrkdco.cloudimg.io/v7/mtp-cf-images.s3-eu-west-1.amazonaws.com/images/max/ceb1347b-8d81-4d86-97e3-64a6f9cf524b.jpg?width=500\u0026amp;sharp=1","name":"Le Comptoir de Pierre Gagnaire","link":"https://guide.michelin.com//en/shanghai-municipality/shanghai/restaurant/le-comptoir-de-pierre-gagnaire","location":"Shanghai","type":"French","lat":31.221621,"lng":121.459785},{"id":175,"rating":"1","year":"MICHELIN Guide Shanghai 2020","img":"https://axwwgrkdco.cloudimg.io/v7/mtp-cf-images.s3-eu-west-1.amazonaws.com/images/max/50d76e35-cf2a-4cf8-9823-3de4585b23d3.jpg?width=500\u0026amp;sharp=1","name":"Amazing Chinese Cuisine (Changning)","link":"https://guide.michelin.com//en/shanghai-municipality/shanghai/restaurant/amazing-chinese-cuisine-changning","location":"Shanghai","type":"Chao Zhou","lat":31.202995,"lng":121.388901},{"id":176,"rating":"1","year":"MICHELIN Guide Shanghai 2020","img":"https://axwwgrkdco.cloudimg.io/v7/mtp-cf-images.s3-eu-west-1.amazonaws.com/images/max/74167e4c-2066-4083-9b48-7be550636118.jpg?width=500\u0026amp;sharp=1","name":"Lei Garden (Pudong)","link":"https://guide.michelin.com//en/shanghai-municipality/shanghai/restaurant/lei-garden-pudong","location":"Shanghai","type":"Cantonese","lat":31.238373,"lng":121.497612},{"id":177,"rating":"1","year":"MICHELIN Guide Shanghai 2020","img":"https://axwwgrkdco.cloudimg.io/v7/mtp-cf-images.s3-eu-west-1.amazonaws.com/images/max/96931c28-0894-4dab-8bb5-b0475746c64d.jpg?width=500\u0026amp;sharp=1","name":"Da Dong (Jingan)","link":"https://guide.michelin.com//en/shanghai-municipality/shanghai/restaurant/da-dong-jingan","location":"Shanghai","type":"Chinese Contemporary","lat":31.225245,"lng":121.442886},{"id":178,"rating":"1","year":"MICHELIN Guide Shanghai 2020","img":"https://axwwgrkdco.cloudimg.io/v7/mtp-cf-images.s3-eu-west-1.amazonaws.com/images/max/fa1d8c7a-8d7c-44d9-b10e-3f004369b577.jpg?width=500\u0026amp;sharp=1","name":"Yong Fu","link":"https://guide.michelin.com//en/shanghai-municipality/shanghai/restaurant/yong-fu","location":"Shanghai","type":"Ningbo","lat":31.220526,"lng":121.460274},{"id":179,"rating":"1","year":"MICHELIN Guide Shanghai 2020","img":"https://axwwgrkdco.cloudimg.io/v7/mtp-cf-images.s3-eu-west-1.amazonaws.com/images/max/c9bb2002-788f-4623-8f6e-e322c3c5a761.jpg?width=500\u0026amp;sharp=1","name":"Le Patio \u0026 La Famille (Huangpu)","link":"https://guide.michelin.com//en/shanghai-municipality/shanghai/restaurant/le-patio-la-famille-huangpu","location":"Shanghai","type":"Hang Zhou","lat":31.237719,"lng":121.484375},{"id":180,"rating":"1","year":"MICHELIN Guide Shanghai 2020","img":"https://axwwgrkdco.cloudimg.io/v7/mtp-cf-images.s3-eu-west-1.amazonaws.com/images/max/ed9a6060-9efd-4a8e-9aae-063bfcffa600.jpg?width=500\u0026amp;sharp=1","name":"Xin Rong Ji (West Nanjing Road)","link":"https://guide.michelin.com//en/shanghai-municipality/shanghai/restaurant/xin-rong-ji-west-nanjing-road","location":"Shanghai","type":"Taizhou","lat":31.23138,"lng":121.464317},{"id":181,"rating":"1","year":"MICHELIN Guide Beijing 2020","img":"https://axwwgrkdco.cloudimg.io/v7/mtp-cf-images.s3-eu-west-1.amazonaws.com/images/max/be6ceeff-45c9-4ddc-b4c1-8c3fdc17d715.jpg?width=500\u0026amp;sharp=1","name":"Da Dong (Gongti East Road)","link":"https://guide.michelin.com//en/beijing-municipality/beijing/restaurant/da-dong-gongti-east-road","location":"Beijing","type":"Chinese Contemporary","lat":39.930511,"lng":116.443314},{"id":182,"rating":"1","year":"MICHELIN Guide Beijing 2020","img":"https://axwwgrkdco.cloudimg.io/v7/mtp-cf-images.s3-eu-west-1.amazonaws.com/images/max/f069d284-3ebe-4458-873a-26632e54744d.jpg?width=500\u0026amp;sharp=1","name":"Da Dong (Dongsi 10th Alley)","link":"https://guide.michelin.com//en/beijing-municipality/beijing/restaurant/da-dong-dongsi-10th-alley","location":"Beijing","type":"Chinese Contemporary","lat":39.93026,"lng":116.424988},{"id":183,"rating":"1","year":"MICHELIN Guide Beijing 2020","img":"https://axwwgrkdco.cloudimg.io/v7/mtp-cf-images.s3-eu-west-1.amazonaws.com/images/max/32667eb0-1283-4699-b659-f3418d837715.jpg?width=500\u0026amp;sharp=1","name":"Seventh Son","link":"https://guide.michelin.com//en/beijing-municipality/beijing/restaurant/seventh-son-1186794","location":"Beijing","type":"Cantonese","lat":39.910984,"lng":116.452362},{"id":184,"rating":"2","year":"MICHELIN Guide Beijing 2020","img":"https://axwwgrkdco.cloudimg.io/v7/mtp-cf-images.s3-eu-west-1.amazonaws.com/images/max/4efeee60-4099-4856-8bd8-fb9cb7ab348c.jpg?width=500\u0026amp;sharp=1","name":"Shanghai Cuisine","link":"https://guide.michelin.com//en/beijing-municipality/beijing/restaurant/shanghai-cuisine","location":"Beijing","type":"Shanghainese","lat":39.930882,"lng":116.453255},{"id":185,"rating":"1","year":"MICHELIN Guide Beijing 2020","img":"https://axwwgrkdco.cloudimg.io/v7/mtp-cf-images.s3-eu-west-1.amazonaws.com/images/max/ea43a593-2ffa-41eb-b0c0-b130ecc4d24a.jpg?width=500\u0026amp;sharp=1","name":"Sheng Yong Xing (Chaoyang)","link":"https://guide.michelin.com//en/beijing-municipality/beijing/restaurant/sheng-yong-xing-chaoyang","location":"Beijing","type":"Beijing Cuisine","lat":39.939224,"lng":116.443748},{"id":186,"rating":"1","year":"MICHELIN Guide Beijing 2020","img":"https://axwwgrkdco.cloudimg.io/v7/mtp-cf-images.s3-eu-west-1.amazonaws.com/images/max/9c6648e2-9750-4027-8fc4-221e0f0b7567.jpg?width=500\u0026amp;sharp=1","name":"Family Li Imperial Cuisine (Xicheng)","link":"https://guide.michelin.com//en/beijing-municipality/beijing/restaurant/family-li-imperial-cuisine-xicheng","location":"Beijing","type":"Beijing Cuisine","lat":39.939838,"lng":116.376923},{"id":187,"rating":"1","year":"MICHELIN Guide Beijing 2020","img":"https://axwwgrkdco.cloudimg.io/v7/mtp-cf-images.s3-eu-west-1.amazonaws.com/images/max/55a36e1b-accd-4a4d-992b-170d7293dd31.jpg?width=500\u0026amp;sharp=1","name":"Cai Yi Xuan","link":"https://guide.michelin.com//en/beijing-municipality/beijing/restaurant/cai-yi-xuan","location":"Beijing","type":"Cantonese","lat":39.948978,"lng":116.461067},{"id":188,"rating":"3","year":"MICHELIN Guide Beijing 2020","img":"https://axwwgrkdco.cloudimg.io/v7/mtp-cf-images.s3-eu-west-1.amazonaws.com/images/max/c8968a09-7d02-4aad-a882-c8d4e66846a1.jpg?width=500\u0026amp;sharp=1","name":"Xin Rong Ji (Xinyuan South Road)","link":"https://guide.michelin.com//en/beijing-municipality/beijing/restaurant/xin-rong-ji-xinyuan-south-road","location":"Beijing","type":"Taizhou","lat":39.946381,"lng":116.45015},{"id":189,"rating":"1","year":"MICHELIN Guide Beijing 2020","img":"https://axwwgrkdco.cloudimg.io/v7/mtp-cf-images.s3-eu-west-1.amazonaws.com/images/max/8d13f12c-636d-4ef9-b711-96ba51bd9d22.jpg?width=500\u0026amp;sharp=1","name":"Cui Hua Lou","link":"https://guide.michelin.com//en/beijing-municipality/beijing/restaurant/cui-hua-lou","location":"Beijing","type":"Shandong","lat":39.897671,"lng":116.411133},{"id":190,"rating":"1","year":"MICHELIN Guide Beijing 2020","img":"https://axwwgrkdco.cloudimg.io/v7/mtp-cf-images.s3-eu-west-1.amazonaws.com/images/max/32ad6fa6-14b8-49b5-adb7-d48bf4086408.jpg?width=500\u0026amp;sharp=1","name":"Xin Rong Ji (Jinrong Street)","link":"https://guide.michelin.com//en/beijing-municipality/beijing/restaurant/xin-rong-ji-jinrong-street","location":"Beijing","type":"Taizhou","lat":39.9175,"lng":116.35331},{"id":191,"rating":"1","year":"MICHELIN Guide Beijing 2020","img":"https://axwwgrkdco.cloudimg.io/v7/mtp-cf-images.s3-eu-west-1.amazonaws.com/images/max/3e999599-1e35-4869-896a-db9c37408057.jpg?width=500\u0026amp;sharp=1","name":"The Georg","link":"https://guide.michelin.com//en/beijing-municipality/beijing/restaurant/the-georg","location":"Beijing","type":"European Contemporary","lat":39.934452,"lng":116.398888},{"id":192,"rating":"1","year":"MICHELIN Guide Beijing 2020","img":"https://axwwgrkdco.cloudimg.io/v7/mtp-cf-images.s3-eu-west-1.amazonaws.com/images/max/b5d23342-8228-4555-8047-89effb2a80a7.jpg?width=500\u0026amp;sharp=1","name":"Poetry?Wine (Dongsanhuan Middle Road)","link":"https://guide.michelin.com//en/beijing-municipality/beijing/restaurant/poetry%E2%80%A7wine","location":"Beijing","type":"Beijing Cuisine","lat":39.89764,"lng":116.454712},{"id":193,"rating":"1","year":"MICHELIN Guide Beijing 2020","img":"https://axwwgrkdco.cloudimg.io/v7/mtp-cf-images.s3-eu-west-1.amazonaws.com/images/max/75bbebc8-9ca5-4cd7-8a44-96d58bfb6f48.jpg?width=500\u0026amp;sharp=1","name":"Il Ristorante - Niko Romito","link":"https://guide.michelin.com//en/beijing-municipality/beijing/restaurant/il-ristorante-niko-romito-1186723","location":"Beijing","type":"Italian","lat":39.94772,"lng":116.452232},{"id":194,"rating":"2","year":"MICHELIN Guide Beijing 2020","img":"https://axwwgrkdco.cloudimg.io/v7/mtp-cf-images.s3-eu-west-1.amazonaws.com/images/max/19a68e30-539a-4d70-9d15-24105f5bd686.jpg?width=500\u0026amp;sharp=1","name":"King's Joy","link":"https://guide.michelin.com//en/beijing-municipality/beijing/restaurant/king-s-joy","location":"Beijing","type":"Vegetarian","lat":39.946682,"lng":116.410004},{"id":195,"rating":"1","year":"MICHELIN Guide Beijing 2020","img":"https://axwwgrkdco.cloudimg.io/v7/mtp-cf-images.s3-eu-west-1.amazonaws.com/images/max/5e1d7d55-1cce-41f3-b783-ad4cef2b24aa.jpg?width=500\u0026amp;sharp=1","name":"Mio","link":"https://guide.michelin.com//en/beijing-municipality/beijing/restaurant/mio","location":"Beijing","type":"Italian","lat":39.95071,"lng":116.467201},{"id":196,"rating":"1","year":"MICHELIN Guide Beijing 2020","img":"https://axwwgrkdco.cloudimg.io/v7/mtp-cf-images.s3-eu-west-1.amazonaws.com/images/max/3d2ccff2-3687-47da-9f1b-6778f5dbdc00.jpg?width=500\u0026amp;sharp=1","name":"Jing Yaa Tang","link":"https://guide.michelin.com//en/beijing-municipality/beijing/restaurant/jing-yaa-tang","location":"Beijing","type":"Beijing Cuisine","lat":39.940475,"lng":116.461517},{"id":197,"rating":"1","year":"MICHELIN Guide Beijing 2020","img":"https://axwwgrkdco.cloudimg.io/v7/mtp-cf-images.s3-eu-west-1.amazonaws.com/images/max/f21d824a-3ce5-4fd7-ab1c-6ec92bf238ce.jpg?width=500\u0026amp;sharp=1","name":"Xin Rong Ji (Jianguomenwai Street)","link":"https://guide.michelin.com//en/beijing-municipality/beijing/restaurant/xin-rong-ji-jianguomenwai-street","location":"Beijing","type":"Taizhou","lat":39.90617,"lng":116.453262},{"id":198,"rating":"1","year":"MICHELIN Guide Beijing 2020","img":"https://axwwgrkdco.cloudimg.io/v7/mtp-cf-images.s3-eu-west-1.amazonaws.com/images/max/4dc7a30c-55a8-4d77-aa7a-51852753d248.jpg?width=500\u0026amp;sharp=1","name":"Huaiyang Fu","link":"https://guide.michelin.com//en/beijing-municipality/beijing/restaurant/huaiyang-fu","location":"Beijing","type":"Huaiyang","lat":39.952381,"lng":116.402771},{"id":199,"rating":"1","year":"MICHELIN Guide Beijing 2020","img":"https://axwwgrkdco.cloudimg.io/v7/mtp-cf-images.s3-eu-west-1.amazonaws.com/images/max/2fe387ae-4908-4ceb-80de-68201b1684b0.jpg?width=500\u0026amp;sharp=1","name":"Lei Garden (Jinbao Tower)","link":"https://guide.michelin.com//en/beijing-municipality/beijing/restaurant/lei-garden-jinbao-tower","location":"Beijing","type":"Cantonese","lat":39.910927,"lng":116.413383},{"id":200,"rating":"1","year":"MICHELIN Guide Beijing 2020","img":"https://axwwgrkdco.cloudimg.io/v7/mtp-cf-images.s3-eu-west-1.amazonaws.com/images/max/75b1559c-85cb-45e0-b25d-bfa1dc49e35e.jpg?width=500\u0026amp;sharp=1","name":"Fu Chun Ju","link":"https://guide.michelin.com//en/beijing-municipality/beijing/restaurant/fu-chun-ju","location":"Beijing","type":"Cantonese","lat":39.922424,"lng":116.40374},{"id":201,"rating":"1","year":"MICHELIN Guide Beijing 2020","img":"https://axwwgrkdco.cloudimg.io/v7/mtp-cf-images.s3-eu-west-1.amazonaws.com/images/max/98ecc4b6-d354-4224-9546-cb410037ad1c.jpg?width=500\u0026amp;sharp=1","name":"In Love (Gongti East Road)","link":"https://guide.michelin.com//en/beijing-municipality/beijing/restaurant/in-love-gongti-east-road","location":"Beijing","type":"Hunanese","lat":39.927315,"lng":116.44323},{"id":202,"rating":"1","year":"MICHELIN Guide Beijing 2020","img":"https://axwwgrkdco.cloudimg.io/v7/mtp-cf-images.s3-eu-west-1.amazonaws.com/images/max/c6d358d0-fa93-42dd-a054-37f74d66850a.jpg?width=500\u0026amp;sharp=1","name":"The Beijing Kitchen","link":"https://guide.michelin.com//en/beijing-municipality/beijing/restaurant/the-beijing-kitchen","location":"Beijing","type":"Cantonese","lat":39.909317,"lng":116.473274},{"id":203,"rating":"1","year":"MICHELIN Guide Beijing 2020","img":"https://axwwgrkdco.cloudimg.io/v7/mtp-cf-images.s3-eu-west-1.amazonaws.com/images/max/f4df2e6e-65de-46e7-bde2-7e189af6b533.jpg?width=500\u0026amp;sharp=1","name":"Lao Ji Tang","link":"https://guide.michelin.com//en/beijing-municipality/beijing/restaurant/lao-ji-tang","location":"Beijing","type":"Shanghainese","lat":39.925182,"lng":116.442596},{"id":204,"rating":"1","year":"MICHELIN Guide Belgium 2020","img":"https://axwwgrkdco.cloudimg.io/v7/mtp-cf-images.s3-eu-west-1.amazonaws.com/images/max/579d9def-6d7b-45b3-a41b-7a15911efd72.jpg?width=500\u0026amp;sharp=1","name":"Het Land","link":"https://guide.michelin.com//en/antwerpen/berlaar/restaurant/het-land","location":"Berlaar","type":"Mediterranean Cuisine, Mediterranean Cuisine","lat":51.116512,"lng":4.655314},{"id":205,"rating":"1","year":"MICHELIN Guide Poland 2020","img":"https://axwwgrkdco.cloudimg.io/v7/mtp-cf-images.s3-eu-west-1.amazonaws.com/images/max/80a134c8-d73a-4e34-9409-c6429d1c6be8.jpg?width=500\u0026amp;sharp=1","name":"atelier Amaro","link":"https://guide.michelin.com//en/masovia/warsaw/restaurant/atelier-amaro","location":"Warsaw","type":"Modern Cuisine, Modern Cuisine","lat":52.229534,"lng":21.022678},{"id":206,"rating":"1","year":"MICHELIN Guide Poland 2020","img":"https://axwwgrkdco.cloudimg.io/v7/mtp-cf-images.s3-eu-west-1.amazonaws.com/images/max/29be52b5-e62c-4a9f-8fa5-00fb1077e5d2.jpg?width=500\u0026amp;sharp=1","name":"Bottiglieria 1881","link":"https://guide.michelin.com//en/lesser-poland/cracow/restaurant/bottiglieria-1881","location":"Cracow","type":"Creative","lat":50.04866,"lng":19.946054},{"id":207,"rating":"1","year":"MICHELIN Guide Poland 2020","img":"https://axwwgrkdco.cloudimg.io/v7/mtp-cf-images.s3-eu-west-1.amazonaws.com/images/max/0b43092b-c9c8-4cc5-a17d-b3c5e6f0f08b.jpg?width=500\u0026amp;sharp=1","name":"Senses","link":"https://guide.michelin.com//en/masovia/warsaw/restaurant/senses","location":"Warsaw","type":"Contemporary, Contemporary","lat":52.24474,"lng":21.005396},{"id":208,"rating":"1","year":"MICHELIN Guide Hungary 2020","img":"https://axwwgrkdco.cloudimg.io/v7/mtp-cf-images.s3-eu-west-1.amazonaws.com/images/max/23f2d538-1536-4fcc-bd0f-8e2130e54096.jpg?width=500\u0026amp;sharp=1","name":"Stand","link":"https://guide.michelin.com//en/central-hungary/budapest/restaurant/stand","location":"Budapest","type":"Modern Cuisine","lat":47.500191,"lng":19.059692},{"id":209,"rating":"1","year":"MICHELIN Guide Hungary 2020","img":"https://axwwgrkdco.cloudimg.io/v7/mtp-cf-images.s3-eu-west-1.amazonaws.com/images/max/b62d91a6-2a0f-4a0d-b633-99a5088bb593.JPG?width=500\u0026amp;sharp=1","name":"Borkonyha Winekitchen","link":"https://guide.michelin.com//en/central-hungary/budapest/restaurant/borkonyha-winekitchen","location":"Budapest","type":"Modern Cuisine","lat":47.499512,"lng":19.052357},{"id":210,"rating":"1","year":"MICHELIN Guide Hungary 2020","img":"https://axwwgrkdco.cloudimg.io/v7/mtp-cf-images.s3-eu-west-1.amazonaws.com/images/max/2a55c85e-f5e0-4318-b796-434da097549b.jpg?width=500\u0026amp;sharp=1","name":"Babel","link":"https://guide.michelin.com//en/central-hungary/budapest/restaurant/babel","location":"Budapest","type":"Modern Cuisine","lat":47.492661,"lng":19.052183},{"id":211,"rating":"2","year":"MICHELIN Guide Hungary 2020","img":"https://axwwgrkdco.cloudimg.io/v7/mtp-cf-images.s3-eu-west-1.amazonaws.com/images/max/dbd4e020-0654-498a-9c2b-a783fdbe8b2d.jpg?width=500\u0026amp;sharp=1","name":"Onyx","link":"https://guide.michelin.com//en/central-hungary/budapest/restaurant/onyx","location":"Budapest","type":"Modern Cuisine","lat":47.497215,"lng":19.050711},{"id":212,"rating":"1","year":"MICHELIN Guide Hungary 2020","img":"https://axwwgrkdco.cloudimg.io/v7/mtp-cf-images.s3-eu-west-1.amazonaws.com/images/max/7cdcac39-ced7-47be-ae35-1db75272568e.JPG?width=500\u0026amp;sharp=1","name":"Costes","link":"https://guide.michelin.com//en/central-hungary/budapest/restaurant/costes","location":"Budapest","type":"Modern Cuisine","lat":47.488895,"lng":19.06214},{"id":213,"rating":"1","year":"MICHELIN Guide Hungary 2020","img":"https://axwwgrkdco.cloudimg.io/v7/mtp-cf-images.s3-eu-west-1.amazonaws.com/images/max/cc495eed-8e0e-461a-afdf-bdbcc097cdd0.jpg?width=500\u0026amp;sharp=1","name":"Costes Downtown","link":"https://guide.michelin.com//en/central-hungary/budapest/restaurant/costes-downtown","location":"Budapest","type":"Modern Cuisine","lat":47.501102,"lng":19.048599},{"id":214,"rating":"1","year":"MICHELIN Guide Greece 2020","img":"https://axwwgrkdco.cloudimg.io/v7/mtp-cf-images.s3-eu-west-1.amazonaws.com/images/max/fab2da78-88d0-4816-989d-ecf6fc9545fc.jpg?width=500\u0026amp;sharp=1","name":"Varoulko Seaside","link":"https://guide.michelin.com//en/attica/athens/restaurant/varoulko-seaside","location":"Athens","type":"Seafood","lat":37.937378,"lng":23.658527},{"id":215,"rating":"2","year":"MICHELIN Guide Greece 2020","img":"https://axwwgrkdco.cloudimg.io/v7/mtp-cf-images.s3-eu-west-1.amazonaws.com/images/max/5e764b07-a068-4af1-9db3-75b2b216781a.jpg?width=500\u0026amp;sharp=1","name":"Spondi","link":"https://guide.michelin.com//en/attica/athens/restaurant/spondi","location":"Athens","type":"French","lat":37.965275,"lng":23.743065},{"id":216,"rating":"1","year":"MICHELIN Guide Greece 2020","img":"https://axwwgrkdco.cloudimg.io/v7/mtp-cf-images.s3-eu-west-1.amazonaws.com/images/max/584e9165-ac33-4ca9-89e9-19a9a1d61d5a.JPG?width=500\u0026amp;sharp=1","name":"Botrini's","link":"https://guide.michelin.com//en/attica/athens/restaurant/botrini-s","location":"Athens","type":"Mediterranean Cuisine","lat":38.023212,"lng":23.79393},{"id":217,"rating":"1","year":"MICHELIN Guide Greece 2020","img":"https://axwwgrkdco.cloudimg.io/v7/mtp-cf-images.s3-eu-west-1.amazonaws.com/images/max/e4a8ada0-dea2-4728-953a-e0b97b0efd71.jpg?width=500\u0026amp;sharp=1","name":"Hytra","link":"https://guide.michelin.com//en/attica/athens/restaurant/hytra","location":"Athens","type":"Modern Cuisine","lat":37.958179,"lng":23.71895},{"id":218,"rating":"1","year":"MICHELIN Guide Czech Republic 2020","img":"https://axwwgrkdco.cloudimg.io/v7/mtp-cf-images.s3-eu-west-1.amazonaws.com/images/max/f5f89684-2aac-41db-8929-f64097145e98.jpg?width=500\u0026amp;sharp=1","name":"Field","link":"https://guide.michelin.com//en/prague/prague/restaurant/field","location":"Prague","type":"Modern Cuisine","lat":50.091835,"lng":14.422073},{"id":219,"rating":"1","year":"MICHELIN Guide Czech Republic 2020","img":"https://axwwgrkdco.cloudimg.io/v7/mtp-cf-images.s3-eu-west-1.amazonaws.com/images/max/f7e37419-cf0c-4047-8449-f0a31275b21d.jpg?width=500\u0026amp;sharp=1","name":"La Degustation Bohême Bourgeoise","link":"https://guide.michelin.com//en/prague/prague/restaurant/la-degustation-boheme-bourgeoise","location":"Prague","type":"Modern Cuisine","lat":50.091106,"lng":14.425067},{"id":220,"rating":"1","year":"MICHELIN Guide Austria 2020","img":"https://axwwgrkdco.cloudimg.io/v7/mtp-cf-images.s3-eu-west-1.amazonaws.com/images/max/d9e91e73-bc17-4c89-9304-3b1aa4aedc03.jpg?width=500\u0026amp;sharp=1","name":"APRON","link":"https://guide.michelin.com//en/vienna/wien/restaurant/apron","location":"Wien","type":"Creative, Creative","lat":48.199642,"lng":16.377117},{"id":221,"rating":"1","year":"MICHELIN Guide Austria 2020","img":"https://static.pxlecdn.com/photos/209139330/original/17ddfeb378f14f127b2a.jpg","name":"Walter Bauer","link":"https://guide.michelin.com//en/vienna/wien/restaurant/walter-bauer","location":"Wien","type":"Classic Cuisine","lat":48.20924,"lng":16.376856},{"id":222,"rating":"1","year":"MICHELIN Guide Austria 2020","img":"https://axwwgrkdco.cloudimg.io/v7/mtp-cf-images.s3-eu-west-1.amazonaws.com/images/max/82af9f3d-7a6c-4eac-b91d-f90574ce916e.jpg?width=500\u0026amp;sharp=1","name":"Tian","link":"https://guide.michelin.com//en/vienna/wien/restaurant/tian","location":"Wien","type":"Vegetarian","lat":48.205177,"lng":16.374516},{"id":223,"rating":"1","year":"MICHELIN Guide Austria 2020","img":"https://axwwgrkdco.cloudimg.io/v7/mtp-cf-images.s3-eu-west-1.amazonaws.com/images/max/9d53d271-4183-4636-9dbf-0b55d4500df7.jpg?width=500\u0026amp;sharp=1","name":"SHIKI","link":"https://guide.michelin.com//en/vienna/wien/restaurant/shiki","location":"Wien","type":"Japanese","lat":48.204124,"lng":16.371014},{"id":224,"rating":"1","year":"MICHELIN Guide Austria 2020","img":"https://axwwgrkdco.cloudimg.io/v7/mtp-cf-images.s3-eu-west-1.amazonaws.com/images/max/edd57b73-c205-4f1b-80a8-9662658fc349.jpg?width=500\u0026amp;sharp=1","name":"Edvard","link":"https://guide.michelin.com//en/vienna/wien/restaurant/edvard","location":"Wien","type":"Modern Cuisine","lat":48.216267,"lng":16.368189},{"id":225,"rating":"2","year":"MICHELIN Guide Austria 2020","img":"https://axwwgrkdco.cloudimg.io/v7/mtp-cf-images.s3-eu-west-1.amazonaws.com/images/max/eda2739c-1bcd-4aca-a239-96a6404edc0e.jpg?width=500\u0026amp;sharp=1","name":"Silvio Nickol Gourmet Restaurant","link":"https://guide.michelin.com//en/vienna/wien/restaurant/silvio-nickol-gourmet-restaurant","location":"Wien","type":"Modern Cuisine","lat":48.205799,"lng":16.377007},{"id":226,"rating":"2","year":"MICHELIN Guide Austria 2020","img":"https://axwwgrkdco.cloudimg.io/v7/mtp-cf-images.s3-eu-west-1.amazonaws.com/images/max/891fed3a-821b-4827-a567-732412a0b7fd.jpg?width=500\u0026amp;sharp=1","name":"Steirereck im Stadtpark","link":"https://guide.michelin.com//en/vienna/wien/restaurant/steirereck-im-stadtpark","location":"Wien","type":"Creative","lat":48.204395,"lng":16.381567},{"id":227,"rating":"1","year":"MICHELIN Guide Austria 2020","img":"https://axwwgrkdco.cloudimg.io/v7/mtp-cf-images.s3-eu-west-1.amazonaws.com/images/max/c6aeaf9f-5734-4476-91c5-67bab6086a21.jpg?width=500\u0026amp;sharp=1","name":"[aend]","link":"https://guide.michelin.com//en/vienna/wien/restaurant/aend","location":"Wien","type":"Modern Cuisine","lat":48.189644,"lng":16.341017},{"id":228,"rating":"1","year":"MICHELIN Guide Austria 2020","img":"https://axwwgrkdco.cloudimg.io/v7/mtp-cf-images.s3-eu-west-1.amazonaws.com/images/max/b0f4c792-cdf5-4579-8e5b-e2273154a0ec.jpg?width=500\u0026amp;sharp=1","name":"Esszimmer","link":"https://guide.michelin.com//en/salzburg-region/salzburg/restaurant/esszimmer","location":"Salzburg","type":"Creative, Creative","lat":47.806694,"lng":13.034193},{"id":229,"rating":"1","year":"MICHELIN Guide Austria 2020","img":"https://axwwgrkdco.cloudimg.io/v7/mtp-cf-images.s3-eu-west-1.amazonaws.com/images/max/da6ebab1-ae35-44f2-aee8-751869708778.jpg?width=500\u0026amp;sharp=1","name":"The Glass Garden","link":"https://guide.michelin.com//en/salzburg-region/salzburg/restaurant/the-glass-garden","location":"Salzburg","type":"Modern Cuisine","lat":47.803959,"lng":13.03569},{"id":230,"rating":"3","year":"MICHELIN Guide Austria 2020","img":"https://axwwgrkdco.cloudimg.io/v7/mtp-cf-images.s3-eu-west-1.amazonaws.com/images/max/69a83c40-0533-46b6-97e9-7e36a4a04b6d.jpg?width=500\u0026amp;sharp=1","name":"Amador","link":"https://guide.michelin.com//en/vienna/wien/restaurant/amador","location":"Wien","type":"Creative","lat":48.254009,"lng":16.358601},{"id":231,"rating":"1","year":"MICHELIN Guide Austria 2020","img":"https://axwwgrkdco.cloudimg.io/v7/mtp-cf-images.s3-eu-west-1.amazonaws.com/images/max/a9ce4fda-4e9d-4057-bee1-b0d5f6446166.jpg?width=500\u0026amp;sharp=1","name":"Kilian Stuba","link":"https://guide.michelin.com//en/styria/hirschegg/restaurant/kilian-stuba","location":"Hirschegg","type":"Creative","lat":47.34866,"lng":10.171979},{"id":232,"rating":"1","year":"MICHELIN Guide Austria 2020","img":"https://axwwgrkdco.cloudimg.io/v7/mtp-cf-images.s3-eu-west-1.amazonaws.com/images/max/289d8b84-9f70-492c-881c-a8f41361019b.jpg?width=500\u0026amp;sharp=1","name":"Pfefferschiff","link":"https://guide.michelin.com//en/salzburg-region/salzburg/restaurant/pfefferschiff","location":"Salzburg","type":"Classic Cuisine","lat":47.837921,"lng":13.079065},{"id":233,"rating":"2","year":"MICHELIN Guide Austria 2020","img":"https://axwwgrkdco.cloudimg.io/v7/mtp-cf-images.s3-eu-west-1.amazonaws.com/images/max/f0433998-282e-4179-8dc3-f8f72e286e97.jpg?width=500\u0026amp;sharp=1","name":"Mraz \u0026 Sohn","link":"https://guide.michelin.com//en/vienna/wien/restaurant/mraz-sohn","location":"Wien","type":"Creative","lat":48.231323,"lng":16.37628},{"id":234,"rating":"2","year":"MICHELIN Guide Austria 2020","img":"https://axwwgrkdco.cloudimg.io/v7/mtp-cf-images.s3-eu-west-1.amazonaws.com/images/max/08eb5ffa-e830-4df0-b6fd-b287ad1bda56.jpg?width=500\u0026amp;sharp=1","name":"Konstantin Filippou","link":"https://guide.michelin.com//en/vienna/wien/restaurant/konstantin-filippou","location":"Wien","type":"Modern Cuisine","lat":48.210728,"lng":16.379793},{"id":235,"rating":"1","year":"MICHELIN Guide Austria 2020","img":"https://static.pxlecdn.com/photos/257189372/original/a5aba698280727dbc26a.jpg","name":"Le Ciel by Toni Mörwald","link":"https://guide.michelin.com//en/vienna/wien/restaurant/le-ciel-by-toni-morwald","location":"Wien","type":"Classic Cuisine, Classic Cuisine","lat":48.202099,"lng":16.371632},{"id":236,"rating":"2","year":"MICHELIN Guide Austria 2020","img":"https://axwwgrkdco.cloudimg.io/v7/mtp-cf-images.s3-eu-west-1.amazonaws.com/images/max/681860c2-1c12-46cd-b43c-c7eabb4f3d9e.jpg?width=500\u0026amp;sharp=1","name":"SENNS.Restaurant","link":"https://guide.michelin.com//en/salzburg-region/salzburg/restaurant/senns-restaurant","location":"Salzburg","type":"Creative","lat":47.836071,"lng":13.063449},{"id":237,"rating":"1","year":"MICHELIN Guide Austria 2020","img":"https://axwwgrkdco.cloudimg.io/v7/mtp-cf-images.s3-eu-west-1.amazonaws.com/images/max/98c4c6f5-2dba-43fb-958c-23abe1cdb849.jpg?width=500\u0026amp;sharp=1","name":"Pramerl \u0026 the Wolf","link":"https://guide.michelin.com//en/vienna/wien/restaurant/pramerl-the-wolf","location":"Wien","type":"Creative","lat":48.222088,"lng":16.364834},{"id":238,"rating":"2","year":"MICHELIN Guide Austria 2020","img":"https://static.pxlecdn.com/photos/356811790/original/10fbd2c23d6be6a7ff99.jpg","name":"Ikarus","link":"https://guide.michelin.com//en/salzburg-region/salzburg/restaurant/ikarus","location":"Salzburg","type":"Creative","lat":47.79356,"lng":13.007903},{"id":239,"rating":"1","year":"MICHELIN Guide Slovenia 2020","img":"https://axwwgrkdco.cloudimg.io/v7/mtp-cf-images.s3-eu-west-1.amazonaws.com/images/max/022c7089-2931-4e85-95ff-1f8231c21b3b.jpg?width=500\u0026amp;sharp=1","name":"Hiša Denk","link":"https://guide.michelin.com//en/drava/zgornja-kungota/restaurant/hisa-denk","location":"Zgornja Kungota","type":"Creative, Creative","lat":46.638355,"lng":15.614434},{"id":240,"rating":"1","year":"MICHELIN Guide Slovenia 2020","img":"https://axwwgrkdco.cloudimg.io/v7/mtp-cf-images.s3-eu-west-1.amazonaws.com/images/max/6ac6bd13-fe58-40ef-ae91-0079f1a30038.jpg?width=500\u0026amp;sharp=1","name":"Vila Podvin","link":"https://guide.michelin.com//en/upper-carniola/radovljica/restaurant/vila-podvin","location":"Radovljica","type":"Modern Cuisine","lat":46.339783,"lng":14.209265},{"id":241,"rating":"1","year":"MICHELIN Guide Slovenia 2020","img":"https://axwwgrkdco.cloudimg.io/v7/mtp-cf-images.s3-eu-west-1.amazonaws.com/images/max/403c6b22-3ea0-4c53-97f2-3e31f502eda9.JPG?width=500\u0026amp;sharp=1","name":"Dam","link":"https://guide.michelin.com//en/gorizia/nova-gorica/restaurant/dam","location":"Nova Gorica","type":"Modern Cuisine, Modern Cuisine","lat":45.958084,"lng":13.662123},